[{"station_id":"TN_THI_PS00002","state":"Tamil Nadu","state_code":"TN","district":"Thiruvallur","district_code":"THI","name":"3 4 5 1 1 Panchayat Union Primary School ,","assembly_constituency":"GUMMIDIPOONDI","latitude":13.0,"longitude":80.0,"metadata":{"data_source":"ECI_Official_2024","ac_number":1}},{"station_id":"TN_THI_PS00004","state":"Tamil Nadu","state_code":"TN","district":"Thiruvallur","district_code":"THI","name":"5 1 1 Panchayat Union Primary School , North Building South Facing, Egumadurai -601201","assembly_constituency":"GUMMIDIPOONDI","latitude":13.0,"longitude":80.0,"metadata":{"data_source":"ECI_Official_2024","ac_number":1}},{"station_id":"TN_THI_PS00001","state":"Tamil Nadu","state_code":"TN","district":"Thiruvallur","district_code":"THI","name":"1 Panchayat Union Primary School , North Building South Facing, Egumadurai -601201","assembly_constituency":"GUMMIDIPOONDI","latitude":13.0,"longitude":80.0,"metadata":{"data_source":"ECI_Official_2024","ac_number":1}},{"station_id":"TN_THI_PS00002","state":"Tamil Nadu","state_code":"TN","district":"Thiruvallur","district_code":"THI","name":"Panchayat Union Primary School , East Building West Facing, Naidu Kuppam -601201","assembly_constituency":"GUMMIDIPOONDI","latitude":13.0,"longitude":80.0,"metadata":{"data_source":"ECI_Official_2024","ac_number":1}},{"station_id":"TN_THI_PS00003","state":"Tamil Nadu","state_code":"TN","district":"Thiruvallur","district_code":"THI","name":"Panchayat Union Primary School South Building North Facing, Thokkamur -601201","assembly_constituency":"GUMMIDIPOONDI","latitude":13.0803,"longitude":80.27029999999999,"metadata":{"data_source":"ECI_Official_2024","ac_number":1}},{"station_id":"TN_THI_PS00004","state":"Tamil Nadu","state_code":"TN","district":"Thiruvallur","district_code":"THI","name":"Panchayat Union Middle School , South Building North Facing, Lingappareddy Medu -601201","assembly_constituency":"GUMMIDIPOONDI","latitude":13.080400000000001,"longitude":80.2704,"metadata":{"data_source":"ECI_Official_2024","ac_number":1}},{"station_id":"TN_THI_PS00005","state":"Tamil Nadu","state_code":"TN","district":"Thiruvallur","district_code":"THI","name":"Panchayat Union Primary School North Building South Facing, Arambakkam -601201","assembly_constituency":"GUMMIDIPOONDI","latitude":13.0805,"longitude":80.2705,"metadata":{"data_source":"ECI_Official_2024","ac_number":1}},{"station_id":"TN_THI_PS00006","state":"Tamil Nadu","state_code":"TN","district":"Thiruvallur","district_code":"THI","name":"Panchayat Union Primary School (West Building East Facing, Arambakkam -601201","assembly_constituency":"GUMMIDIPOONDI","latitude":13.0806,"longitude":80.2706,"metadata":{"data_source":"ECI_Official_2024","ac_number":1}},{"station_id":"TN_THI_PS00007","state":"Tamil Nadu","state_code":"TN","district":"Thiruvallur","district_code":"THI","name":"Panchayat Union Middle School East Building West Facing, (Room No.1) Notchikuppam -601201","assembly_constituency":"GUMMIDIPOONDI","latitude":13.0807,"longitude":80.27069999999999,"metadata":{"data_source":"ECI_Official_2024","ac_number":1}},{"station_id":"TN_THI_PS00008","state":"Tamil Nadu","state_code":"TN","district":"Thiruvallur","district_code":"THI","name":"Panchayat Union Middle School East Building West Facing (Room No.2) Notchikuppam -601201","assembly_constituency":"GUMMIDIPOONDI","latitude":13.0808,"longitude":80.2708,"metadata":{"data_source":"ECI_Official_2024","ac_number":1}},{"station_id":"TN_THI_PS00009","state":"Tamil Nadu","state_code":"TN","district":"Thiruvallur","district_code":"THI","name":"Panchayat Union Middle School New Building , North Building South Facing, Notchikuppam-601201","assembly_constituency":"GUMMIDIPOONDI","latitude":13.0809,"longitude":80.2709,"metadata":{"data_source":"ECI_Official_2024","ac_number":1}},{"station_id":"TN_THI_PS00002","state":"Tamil Nadu","state_code":"TN","district":"Thiruvallur","district_code":"THI","name":"3 4 5 List of Polling Stations for  1   GUMMIDIPOONDI   Assembly Segment within the 1   THIRUVALLUR (SC)  Parliamentary Constituency 10","assembly_constituency":"GUMMIDIPOONDI","latitude":13.0,"longitude":80.0,"metadata":{"data_source":"ECI_Official_2024","ac_number":1}},{"station_id":"TN_THI_PS00004","state":"Tamil Nadu","state_code":"TN","district":"Thiruvallur","district_code":"THI","name":"5 List of Polling Stations for  1   GUMMIDIPOONDI   Assembly Segment within the 1   THIRUVALLUR (SC)  Parliamentary Constituency 10 10 Government Higher Sec School West","assembly_constituency":"GUMMIDIPOONDI","latitude":13.0,"longitude":80.0,"metadata":{"data_source":"ECI_Official_2024","ac_number":1}},{"station_id":"TN_THI_PS00010","state":"Tamil Nadu","state_code":"TN","district":"Thiruvallur","district_code":"THI","name":"Government Higher Sec School West Building East Facing , Arambakkam- 601201","assembly_constituency":"GUMMIDIPOONDI","latitude":13.081,"longitude":80.271,"metadata":{"data_source":"ECI_Official_2024","ac_number":1}},{"station_id":"TN_THI_PS00011","state":"Tamil Nadu","state_code":"TN","district":"Thiruvallur","district_code":"THI","name":"Government Higher Sec School West Building East Facing , Arambakkam - 601201","assembly_constituency":"GUMMIDIPOONDI","latitude":13.0811,"longitude":80.27109999999999,"metadata":{"data_source":"ECI_Official_2024","ac_number":1}},{"station_id":"TN_THI_PS00012","state":"Tamil Nadu","state_code":"TN","district":"Thiruvallur","district_code":"THI","name":"Government Higher Sec School North Building South Facing , Arambakkam -601201","assembly_constituency":"GUMMIDIPOONDI","latitude":13.0812,"longitude":80.2712,"metadata":{"data_source":"ECI_Official_2024","ac_number":1}},{"station_id":"TN_THI_PS00013","state":"Tamil Nadu","state_code":"TN","district":"Thiruvallur","district_code":"THI","name":"Government Higher Sec School North Building South Facing , Arambakkam -601201","assembly_constituency":"GUMMIDIPOONDI","latitude":13.0812,"longitude":80.2712,"metadata":{"data_source":"ECI_Official_2024","ac_number":1}},{"station_id":"TN_THI_PS00014","state":"Tamil Nadu","state_code":"TN","district":"Thiruvallur","district_code":"THI","name":"Panchayan Union Middle School North Building South Facing Room No 1 , Poovalai -601201","assembly_constituency":"GUMMIDIPOONDI","latitude":13.0814,"longitude":80.2714,"metadata":{"data_source":"ECI_Official_2024","ac_number":1}},{"station_id":"TN_THI_PS00015","state":"Tamil Nadu","state_code":"TN","district":"Thiruvallur","district_code":"THI","name":"Panchayan Union Middle School North Building South FacingRoom No 2 , Poovalai -601201","assembly_constituency":"GUMMIDIPOONDI","latitude":13.0815,"longitude":80.27149999999999,"metadata":{"data_source":"ECI_Official_2024","ac_number":1}},{"station_id":"TN_THI_PS00016","state":"Tamil Nadu","state_code":"TN","district":"Thiruvallur","district_code":"THI","name":"Panchayat Union Middle School - South Building North Facing, Kannambakkam -601202","assembly_constituency":"GUMMIDIPOONDI","latitude":13.0816,"longitude":80.27159999999999,"metadata":{"data_source":"ECI_Official_2024","ac_number":1}},{"station_id":"TN_THI_PS00017","state":"Tamil Nadu","state_code":"TN","district":"Thiruvallur","district_code":"THI","name":"Panchayat Union Middle School , West New Building East Facing, Pallavada -601202","assembly_constituency":"GUMMIDIPOONDI","latitude":13.0817,"longitude":80.2717,"metadata":{"data_source":"ECI_Official_2024","ac_number":1}},{"station_id":"TN_THI_PS00018","state":"Tamil Nadu","state_code":"TN","district":"Thiruvallur","district_code":"THI","name":"Panchayat Union Middle School , North Building South facing, Pallavada -601202","assembly_constituency":"GUMMIDIPOONDI","latitude":13.0818,"longitude":80.2718,"metadata":{"data_source":"ECI_Official_2024","ac_number":1}},{"station_id":"TN_THI_PS00002","state":"Tamil Nadu","state_code":"TN","district":"Thiruvallur","district_code":"THI","name":"3 4 5 List of Polling Stations for  1   GUMMIDIPOONDI   Assembly Segment within the 1   THIRUVALLUR (SC)  Parliamentary Constituency 19","assembly_constituency":"GUMMIDIPOONDI","latitude":13.0,"longitude":80.0,"metadata":{"data_source":"ECI_Official_2024","ac_number":1}},{"station_id":"TN_THI_PS00004","state":"Tamil Nadu","state_code":"TN","district":"Thiruvallur","district_code":"THI","name":"5 List of Polling Stations for  1   GUMMIDIPOONDI   Assembly Segment within the 1   THIRUVALLUR (SC)  Parliamentary Constituency 19 19 C.S.I. Primary School, West Building","assembly_constituency":"GUMMIDIPOONDI","latitude":13.0,"longitude":80.0,"metadata":{"data_source":"ECI_Official_2024","ac_number":1}},{"station_id":"TN_THI_PS00019","state":"Tamil Nadu","state_code":"TN","district":"Thiruvallur","district_code":"THI","name":"C.S.I. Primary School, West Building East Facing, Pondavakkam -601202","assembly_constituency":"GUMMIDIPOONDI","latitude":13.0819,"longitude":80.2719,"metadata":{"data_source":"ECI_Official_2024","ac_number":1}},{"station_id":"TN_THI_PS00020","state":"Tamil Nadu","state_code":"TN","district":"Thiruvallur","district_code":"THI","name":"Grama Sevai Maiyam, West Building, East Facing, Pondavakkam -601202","assembly_constituency":"GUMMIDIPOONDI","latitude":13.082,"longitude":80.27199999999999,"metadata":{"data_source":"ECI_Official_2024","ac_number":1}},{"station_id":"TN_THI_PS00021","state":"Tamil Nadu","state_code":"TN","district":"Thiruvallur","district_code":"THI","name":"Panchayat Union Middle School West Building East Facing , Sanaputhur- 601201","assembly_constituency":"GUMMIDIPOONDI","latitude":13.0821,"longitude":80.2721,"metadata":{"data_source":"ECI_Official_2024","ac_number":1}},{"station_id":"TN_THI_PS00022","state":"Tamil Nadu","state_code":"TN","district":"Thiruvallur","district_code":"THI","name":"Panchayat Union Primary School, South Building North Facing, Allibukulam -601201","assembly_constituency":"GUMMIDIPOONDI","latitude":13.0822,"longitude":80.2722,"metadata":{"data_source":"ECI_Official_2024","ac_number":1}},{"station_id":"TN_THI_PS00023","state":"Tamil Nadu","state_code":"TN","district":"Thiruvallur","district_code":"THI","name":"Panchayat Union Primary School New SSA Building West Building East Facing, Kondamanallur-601201","assembly_constituency":"GUMMIDIPOONDI","latitude":13.0823,"longitude":80.2723,"metadata":{"data_source":"ECI_Official_2024","ac_number":1}},{"station_id":"TN_THI_PS00024","state":"Tamil Nadu","state_code":"TN","district":"Thiruvallur","district_code":"THI","name":"Panchayat Union Middle School - West Building East Facing, Edur- 601201","assembly_constituency":"GUMMIDIPOONDI","latitude":13.0824,"longitude":80.27239999999999,"metadata":{"data_source":"ECI_Official_2024","ac_number":1}},{"station_id":"TN_THI_PS00025","state":"Tamil Nadu","state_code":"TN","district":"Thiruvallur","district_code":"THI","name":"Panchayat Union Middle School, North Building, East Facing, Edur- 601201","assembly_constituency":"GUMMIDIPOONDI","latitude":13.0825,"longitude":80.2725,"metadata":{"data_source":"ECI_Official_2024","ac_number":1}},{"station_id":"TN_THI_PS00026","state":"Tamil Nadu","state_code":"TN","district":"Thiruvallur","district_code":"THI","name":"Panchayat Union Primary School - South Building North Facing Room NO 1, Kumpachinthala (Kumpli)- 601201","assembly_constituency":"GUMMIDIPOONDI","latitude":13.0826,"longitude":80.2726,"metadata":{"data_source":"ECI_Official_2024","ac_number":1}},{"station_id":"TN_THI_PS00027","state":"Tamil Nadu","state_code":"TN","district":"Thiruvallur","district_code":"THI","name":"Panchayat Union Primary School - South Building North Facing Room No 2 , Kumpachinthala (Kumpli)- 601201","assembly_constituency":"GUMMIDIPOONDI","latitude":13.0827,"longitude":80.2727,"metadata":{"data_source":"ECI_Official_2024","ac_number":1}},{"station_id":"TN_THI_PS00002","state":"Tamil Nadu","state_code":"TN","district":"Thiruvallur","district_code":"THI","name":"3 4 5 List of Polling Stations for  1   GUMMIDIPOONDI   Assembly Segment within the 1   THIRUVALLUR (SC)  Parliamentary Constituency 28","assembly_constituency":"GUMMIDIPOONDI","latitude":13.0,"longitude":80.0,"metadata":{"data_source":"ECI_Official_2024","ac_number":1}},{"station_id":"TN_THI_PS00004","state":"Tamil Nadu","state_code":"TN","district":"Thiruvallur","district_code":"THI","name":"5 List of Polling Stations for  1   GUMMIDIPOONDI   Assembly Segment within the 1   THIRUVALLUR (SC)  Parliamentary Constituency 28 28 Panchayat Union Middle School","assembly_constituency":"GUMMIDIPOONDI","latitude":13.0,"longitude":80.0,"metadata":{"data_source":"ECI_Official_2024","ac_number":1}},{"station_id":"TN_THI_PS00028","state":"Tamil Nadu","state_code":"TN","district":"Thiruvallur","district_code":"THI","name":"Panchayat Union Middle School ,West Building East Facing , Vallamambedu Kuppam-601201","assembly_constituency":"GUMMIDIPOONDI","latitude":13.0828,"longitude":80.27279999999999,"metadata":{"data_source":"ECI_Official_2024","ac_number":1}},{"station_id":"TN_THI_PS00029","state":"Tamil Nadu","state_code":"TN","district":"Thiruvallur","district_code":"THI","name":"Anganwadi Centre ,East Building West Facing Elavur","assembly_constituency":"GUMMIDIPOONDI","latitude":13.0829,"longitude":80.27289999999999,"metadata":{"data_source":"ECI_Official_2024","ac_number":1}},{"station_id":"TN_THI_PS00030","state":"Tamil Nadu","state_code":"TN","district":"Thiruvallur","district_code":"THI","name":"Panchayat Union Primary School, North Building South Facing, Elavoor Salai-601201","assembly_constituency":"GUMMIDIPOONDI","latitude":13.083,"longitude":80.273,"metadata":{"data_source":"ECI_Official_2024","ac_number":1}},{"station_id":"TN_THI_PS00031","state":"Tamil Nadu","state_code":"TN","district":"Thiruvallur","district_code":"THI","name":"Government Higher Sec School New Building North Building South Facing, Thalayaripalayam-601201","assembly_constituency":"GUMMIDIPOONDI","latitude":13.0831,"longitude":80.2731,"metadata":{"data_source":"ECI_Official_2024","ac_number":1}},{"station_id":"TN_THI_PS00032","state":"Tamil Nadu","state_code":"TN","district":"Thiruvallur","district_code":"THI","name":"Government Higher Sec School North Side New Buliding Sorth Faching, Thalayaripalayam-601201","assembly_constituency":"GUMMIDIPOONDI","latitude":13.0832,"longitude":80.2732,"metadata":{"data_source":"ECI_Official_2024","ac_number":1}},{"station_id":"TN_THI_PS00033","state":"Tamil Nadu","state_code":"TN","district":"Thiruvallur","district_code":"THI","name":"Panchayat Union Primary School , West New Building East Facing, Thalayaripalayam-601201","assembly_constituency":"GUMMIDIPOONDI","latitude":13.0833,"longitude":80.27329999999999,"metadata":{"data_source":"ECI_Official_2024","ac_number":1}},{"station_id":"TN_THI_PS00034","state":"Tamil Nadu","state_code":"TN","district":"Thiruvallur","district_code":"THI","name":"Panchayat Union Primary School North Buliding South Faching, Thalayaripalayam-601201","assembly_constituency":"GUMMIDIPOONDI","latitude":13.0834,"longitude":80.2734,"metadata":{"data_source":"ECI_Official_2024","ac_number":1}},{"station_id":"TN_THI_PS00035","state":"Tamil Nadu","state_code":"TN","district":"Thiruvallur","district_code":"THI","name":"Government Higher Sec School, West Building Room No. 9 East Facing, Sunnambukulam-601201","assembly_constituency":"GUMMIDIPOONDI","latitude":13.0835,"longitude":80.2735,"metadata":{"data_source":"ECI_Official_2024","ac_number":1}},{"station_id":"TN_THI_PS00036","state":"Tamil Nadu","state_code":"TN","district":"Thiruvallur","district_code":"THI","name":"Government Higher Sec School Room No 9 West Building East Facing, Sunnambukulam-601201","assembly_constituency":"GUMMIDIPOONDI","latitude":13.0836,"longitude":80.2736,"metadata":{"data_source":"ECI_Official_2024","ac_number":1}},{"station_id":"TN_THI_PS00002","state":"Tamil Nadu","state_code":"TN","district":"Thiruvallur","district_code":"THI","name":"3 4 5 List of Polling Stations for  1   GUMMIDIPOONDI   Assembly Segment within the 1   THIRUVALLUR (SC)  Parliamentary Constituency 37","assembly_constituency":"GUMMIDIPOONDI","latitude":13.0,"longitude":80.0,"metadata":{"data_source":"ECI_Official_2024","ac_number":1}},{"station_id":"TN_THI_PS00004","state":"Tamil Nadu","state_code":"TN","district":"Thiruvallur","district_code":"THI","name":"5 List of Polling Stations for  1   GUMMIDIPOONDI   Assembly Segment within the 1   THIRUVALLUR (SC)  Parliamentary Constituency 37 37 Government Higher Sec School ,","assembly_constituency":"GUMMIDIPOONDI","latitude":13.0,"longitude":80.0,"metadata":{"data_source":"ECI_Official_2024","ac_number":1}},{"station_id":"TN_THI_PS00037","state":"Tamil Nadu","state_code":"TN","district":"Thiruvallur","district_code":"THI","name":"Government Higher Sec School , North New Building South FacingRoom No.18), Sunnambukulam-601201","assembly_constituency":"GUMMIDIPOONDI","latitude":13.0837,"longitude":80.27369999999999,"metadata":{"data_source":"ECI_Official_2024","ac_number":1}},{"station_id":"TN_THI_PS00038","state":"Tamil Nadu","state_code":"TN","district":"Thiruvallur","district_code":"THI","name":"Govermnet High School West Building East Facing , Obasamudram-601201","assembly_constituency":"GUMMIDIPOONDI","latitude":13.0838,"longitude":80.2738,"metadata":{"data_source":"ECI_Official_2024","ac_number":1}},{"station_id":"TN_THI_PS00039","state":"Tamil Nadu","state_code":"TN","district":"Thiruvallur","district_code":"THI","name":"Govermnet High School West Building East Facing, Obasamudram- 601201","assembly_constituency":"GUMMIDIPOONDI","latitude":13.0839,"longitude":80.2739,"metadata":{"data_source":"ECI_Official_2024","ac_number":1}},{"station_id":"TN_THI_PS00040","state":"Tamil Nadu","state_code":"TN","district":"Thiruvallur","district_code":"THI","name":"Govermnet High School East Building West Facing, Obasamudram-601201","assembly_constituency":"GUMMIDIPOONDI","latitude":13.084,"longitude":80.274,"metadata":{"data_source":"ECI_Official_2024","ac_number":1}},{"station_id":"TN_THI_PS00041","state":"Tamil Nadu","state_code":"TN","district":"Thiruvallur","district_code":"THI","name":"Panchayat Union Middle School S S A Building, West Building East Facing , Rakkampalayam-601201","assembly_constituency":"GUMMIDIPOONDI","latitude":13.0841,"longitude":80.27409999999999,"metadata":{"data_source":"ECI_Official_2024","ac_number":1}},{"station_id":"TN_THI_PS00042","state":"Tamil Nadu","state_code":"TN","district":"Thiruvallur","district_code":"THI","name":"Panchayat Union Middle School , South Building North Faicng, Rakkampalayam-601201","assembly_constituency":"GUMMIDIPOONDI","latitude":13.084200000000001,"longitude":80.2742,"metadata":{"data_source":"ECI_Official_2024","ac_number":1}},{"station_id":"TN_THI_PS00043","state":"Tamil Nadu","state_code":"TN","district":"Thiruvallur","district_code":"THI","name":"Panchayat Union Primary School, East Buildng West Facing, Mangavaram-601201","assembly_constituency":"GUMMIDIPOONDI","latitude":13.0843,"longitude":80.2743,"metadata":{"data_source":"ECI_Official_2024","ac_number":1}},{"station_id":"TN_THI_PS00044","state":"Tamil Nadu","state_code":"TN","district":"Thiruvallur","district_code":"THI","name":"Village Panchayat Service Centre, West side Building East Facing Mangavaram","assembly_constituency":"GUMMIDIPOONDI","latitude":13.0844,"longitude":80.2744,"metadata":{"data_source":"ECI_Official_2024","ac_number":1}},{"station_id":"TN_THI_PS00045","state":"Tamil Nadu","state_code":"TN","district":"Thiruvallur","district_code":"THI","name":"Panchayat Union Middle School , East Building West Facing, Natham- 601201","assembly_constituency":"GUMMIDIPOONDI","latitude":13.0845,"longitude":80.27449999999999,"metadata":{"data_source":"ECI_Official_2024","ac_number":1}},{"station_id":"TN_THI_PS00046","state":"Tamil Nadu","state_code":"TN","district":"Thiruvallur","district_code":"THI","name":"Panchayat Union Middle School, South Building North Facing, Natham-601201","assembly_constituency":"GUMMIDIPOONDI","latitude":13.0846,"longitude":80.27459999999999,"metadata":{"data_source":"ECI_Official_2024","ac_number":1}},{"station_id":"TN_THI_PS00002","state":"Tamil Nadu","state_code":"TN","district":"Thiruvallur","district_code":"THI","name":"3 4 5 List of Polling Stations for  1   GUMMIDIPOONDI   Assembly Segment within the 1   THIRUVALLUR (SC)  Parliamentary Constituency 47","assembly_constituency":"GUMMIDIPOONDI","latitude":13.0,"longitude":80.0,"metadata":{"data_source":"ECI_Official_2024","ac_number":1}},{"station_id":"TN_THI_PS00004","state":"Tamil Nadu","state_code":"TN","district":"Thiruvallur","district_code":"THI","name":"5 List of Polling Stations for  1   GUMMIDIPOONDI   Assembly Segment within the 1   THIRUVALLUR (SC)  Parliamentary Constituency 47 47 Panchayat Union Primary School ,","assembly_constituency":"GUMMIDIPOONDI","latitude":13.0,"longitude":80.0,"metadata":{"data_source":"ECI_Official_2024","ac_number":1}},{"station_id":"TN_THI_PS00047","state":"Tamil Nadu","state_code":"TN","district":"Thiruvallur","district_code":"THI","name":"Panchayat Union Primary School , North Building South Facing, Thurappallam-601201","assembly_constituency":"GUMMIDIPOONDI","latitude":13.0847,"longitude":80.2747,"metadata":{"data_source":"ECI_Official_2024","ac_number":1}},{"station_id":"TN_THI_PS00048","state":"Tamil Nadu","state_code":"TN","district":"Thiruvallur","district_code":"THI","name":"Anganwadi Centre, North Building, South Facing, Thurapallam","assembly_constituency":"GUMMIDIPOONDI","latitude":13.0848,"longitude":80.2748,"metadata":{"data_source":"ECI_Official_2024","ac_number":1}},{"station_id":"TN_THI_PS00049","state":"Tamil Nadu","state_code":"TN","district":"Thiruvallur","district_code":"THI","name":"Panchayath Union Primary School, West Building East Facing, Thalayaripalayam-601201","assembly_constituency":"GUMMIDIPOONDI","latitude":13.0849,"longitude":80.2749,"metadata":{"data_source":"ECI_Official_2024","ac_number":1}},{"station_id":"TN_THI_PS00050","state":"Tamil Nadu","state_code":"TN","district":"Thiruvallur","district_code":"THI","name":"Panchayath Union Elementry School,South Building North Facing, Kayalarmedu-601201","assembly_constituency":"GUMMIDIPOONDI","latitude":13.085,"longitude":80.27499999999999,"metadata":{"data_source":"ECI_Official_2024","ac_number":1}},{"station_id":"TN_THI_PS00051","state":"Tamil Nadu","state_code":"TN","district":"Thiruvallur","district_code":"THI","name":"Panchayat Union Middle School , West Side Building Center Class East Facing , Chinna Obulapuram- 601201","assembly_constituency":"GUMMIDIPOONDI","latitude":13.0851,"longitude":80.2751,"metadata":{"data_source":"ECI_Official_2024","ac_number":1}},{"station_id":"TN_THI_PS00052","state":"Tamil Nadu","state_code":"TN","district":"Thiruvallur","district_code":"THI","name":"Panchayat Union Middle School (East Faching 6th Class Room), Chinna obulapuram-601201","assembly_constituency":"GUMMIDIPOONDI","latitude":13.0852,"longitude":80.2752,"metadata":{"data_source":"ECI_Official_2024","ac_number":1}},{"station_id":"TN_THI_PS00053","state":"Tamil Nadu","state_code":"TN","district":"Thiruvallur","district_code":"THI","name":"Panchayat Union Middle School , South Building North Facing, Periya Obulapuram-601201","assembly_constituency":"GUMMIDIPOONDI","latitude":13.0853,"longitude":80.2753,"metadata":{"data_source":"ECI_Official_2024","ac_number":1}},{"station_id":"TN_THI_PS00054","state":"Tamil Nadu","state_code":"TN","district":"Thiruvallur","district_code":"THI","name":"Panchayat Union Middle School ,South Building North Facing, Periya Obulapuram-601201","assembly_constituency":"GUMMIDIPOONDI","latitude":13.0854,"longitude":80.27539999999999,"metadata":{"data_source":"ECI_Official_2024","ac_number":1}},{"station_id":"TN_THI_PS00055","state":"Tamil Nadu","state_code":"TN","district":"Thiruvallur","district_code":"THI","name":"Panchayat Union Primary School ,South Building North Facing, Nagaraja Kandigai-601201","assembly_constituency":"GUMMIDIPOONDI","latitude":13.0855,"longitude":80.2755,"metadata":{"data_source":"ECI_Official_2024","ac_number":1}},{"station_id":"TN_THI_PS00056","state":"Tamil Nadu","state_code":"TN","district":"Thiruvallur","district_code":"THI","name":"Panchayth Union Primary School,North Building South Facing Kumaranaikkan Pettai","assembly_constituency":"GUMMIDIPOONDI","latitude":13.0856,"longitude":80.2756,"metadata":{"data_source":"ECI_Official_2024","ac_number":1}},{"station_id":"TN_THI_PS00002","state":"Tamil Nadu","state_code":"TN","district":"Thiruvallur","district_code":"THI","name":"3 4 5 List of Polling Stations for  1   GUMMIDIPOONDI   Assembly Segment within the 1   THIRUVALLUR (SC)  Parliamentary Constituency 57","assembly_constituency":"GUMMIDIPOONDI","latitude":13.0,"longitude":80.0,"metadata":{"data_source":"ECI_Official_2024","ac_number":1}},{"station_id":"TN_THI_PS00004","state":"Tamil Nadu","state_code":"TN","district":"Thiruvallur","district_code":"THI","name":"5 List of Polling Stations for  1   GUMMIDIPOONDI   Assembly Segment within the 1   THIRUVALLUR (SC)  Parliamentary Constituency 57 57 CSI Primary School, North New","assembly_constituency":"GUMMIDIPOONDI","latitude":13.0,"longitude":80.0,"metadata":{"data_source":"ECI_Official_2024","ac_number":1}},{"station_id":"TN_THI_PS00057","state":"Tamil Nadu","state_code":"TN","district":"Thiruvallur","district_code":"THI","name":"CSI Primary School, North New Building South Facing, Kumaranaikkan Pettai-601201","assembly_constituency":"GUMMIDIPOONDI","latitude":13.0857,"longitude":80.2757,"metadata":{"data_source":"ECI_Official_2024","ac_number":1}},{"station_id":"TN_THI_PS00058","state":"Tamil Nadu","state_code":"TN","district":"Thiruvallur","district_code":"THI","name":"Panchayat Union Primary School , South Building North Facing, Eguvarpalayam-601201","assembly_constituency":"GUMMIDIPOONDI","latitude":13.0858,"longitude":80.27579999999999,"metadata":{"data_source":"ECI_Official_2024","ac_number":1}},{"station_id":"TN_THI_PS00059","state":"Tamil Nadu","state_code":"TN","district":"Thiruvallur","district_code":"THI","name":"Panchayat Union Primary School , East Building West Facing, Eguvarpalayam-601201","assembly_constituency":"GUMMIDIPOONDI","latitude":13.0859,"longitude":80.2759,"metadata":{"data_source":"ECI_Official_2024","ac_number":1}},{"station_id":"TN_THI_PS00060","state":"Tamil Nadu","state_code":"TN","district":"Thiruvallur","district_code":"THI","name":"Panchayat Union Primary School, North Building South Facing, Soorapoondi-601201","assembly_constituency":"GUMMIDIPOONDI","latitude":13.086,"longitude":80.276,"metadata":{"data_source":"ECI_Official_2024","ac_number":1}},{"station_id":"TN_THI_PS00061","state":"Tamil Nadu","state_code":"TN","district":"Thiruvallur","district_code":"THI","name":"Panchayat Union Primary School, East Building West Facing Room No- 1, Manellore -601202","assembly_constituency":"GUMMIDIPOONDI","latitude":13.0861,"longitude":80.2761,"metadata":{"data_source":"ECI_Official_2024","ac_number":1}},{"station_id":"TN_THI_PS00062","state":"Tamil Nadu","state_code":"TN","district":"Thiruvallur","district_code":"THI","name":"Panchayat Union Primary School, East Building West Facing Room No- 2, Manellore-601202","assembly_constituency":"GUMMIDIPOONDI","latitude":13.0862,"longitude":80.2762,"metadata":{"data_source":"ECI_Official_2024","ac_number":1}},{"station_id":"TN_THI_PS00063","state":"Tamil Nadu","state_code":"TN","district":"Thiruvallur","district_code":"THI","name":"Panchayat Union Primary School, North Building South Facing, Manellore-601202","assembly_constituency":"GUMMIDIPOONDI","latitude":13.0863,"longitude":80.27629999999999,"metadata":{"data_source":"ECI_Official_2024","ac_number":1}},{"station_id":"TN_THI_PS00002","state":"Tamil Nadu","state_code":"TN","district":"Thiruvallur","district_code":"THI","name":"3 4 5 List of Polling Stations for  1   GUMMIDIPOONDI   Assembly Segment within the 1   THIRUVALLUR (SC)  Parliamentary Constituency 64","assembly_constituency":"GUMMIDIPOONDI","latitude":13.0,"longitude":80.0,"metadata":{"data_source":"ECI_Official_2024","ac_number":1}},{"station_id":"TN_THI_PS00004","state":"Tamil Nadu","state_code":"TN","district":"Thiruvallur","district_code":"THI","name":"5 List of Polling Stations for  1   GUMMIDIPOONDI   Assembly Segment within the 1   THIRUVALLUR (SC)  Parliamentary Constituency 64 64 Govt Higher Secondary School North","assembly_constituency":"GUMMIDIPOONDI","latitude":13.0,"longitude":80.0,"metadata":{"data_source":"ECI_Official_2024","ac_number":1}},{"station_id":"TN_THI_PS00064","state":"Tamil Nadu","state_code":"TN","district":"Thiruvallur","district_code":"THI","name":"Govt Higher Secondary School North Building North Facing Room No-1, Madarpakkam Pathirivedu-601202","assembly_constituency":"GUMMIDIPOONDI","latitude":13.0864,"longitude":80.2764,"metadata":{"data_source":"ECI_Official_2024","ac_number":1}},{"station_id":"TN_THI_PS00065","state":"Tamil Nadu","state_code":"TN","district":"Thiruvallur","district_code":"THI","name":"Govt Higher Secondary School North Building North Facing Room No-2, Madarpakkam Pathirivedu-601202","assembly_constituency":"GUMMIDIPOONDI","latitude":13.086500000000001,"longitude":80.2765,"metadata":{"data_source":"ECI_Official_2024","ac_number":1}},{"station_id":"TN_THI_PS00066","state":"Tamil Nadu","state_code":"TN","district":"Thiruvallur","district_code":"THI","name":"St. Antonyar Middle School, East Building West Facing(Room No.2),Sedhilpakkam-601202","assembly_constituency":"GUMMIDIPOONDI","latitude":13.0866,"longitude":80.2766,"metadata":{"data_source":"ECI_Official_2024","ac_number":1}},{"station_id":"TN_THI_PS00067","state":"Tamil Nadu","state_code":"TN","district":"Thiruvallur","district_code":"THI","name":"St Antonyar Middle School East Building West Facing Room No.3 Sedhilpakkam-601202","assembly_constituency":"GUMMIDIPOONDI","latitude":13.0867,"longitude":80.27669999999999,"metadata":{"data_source":"ECI_Official_2024","ac_number":1}},{"station_id":"TN_THI_PS00068","state":"Tamil Nadu","state_code":"TN","district":"Thiruvallur","district_code":"THI","name":"Panchayat Union Middle School, West Building East Facing, Madarpakkam-601202","assembly_constituency":"GUMMIDIPOONDI","latitude":13.0868,"longitude":80.2768,"metadata":{"data_source":"ECI_Official_2024","ac_number":1}},{"station_id":"TN_THI_PS00069","state":"Tamil Nadu","state_code":"TN","district":"Thiruvallur","district_code":"THI","name":"Panchayat Union Middle School, West Middle Building East Facing, Madarpakkam-601202","assembly_constituency":"GUMMIDIPOONDI","latitude":13.0869,"longitude":80.2769,"metadata":{"data_source":"ECI_Official_2024","ac_number":1}},{"station_id":"TN_THI_PS00070","state":"Tamil Nadu","state_code":"TN","district":"Thiruvallur","district_code":"THI","name":"Panchayat Union Middle School, South Building, North Facing, Madarpakkam-601202","assembly_constituency":"GUMMIDIPOONDI","latitude":13.087,"longitude":80.277,"metadata":{"data_source":"ECI_Official_2024","ac_number":1}},{"station_id":"TN_THI_PS00071","state":"Tamil Nadu","state_code":"TN","district":"Thiruvallur","district_code":"THI","name":"Panchayat Union Middle School, East Building West Facing, Madarpakkam-601202","assembly_constituency":"GUMMIDIPOONDI","latitude":13.0871,"longitude":80.27709999999999,"metadata":{"data_source":"ECI_Official_2024","ac_number":1}},{"station_id":"TN_THI_PS00002","state":"Tamil Nadu","state_code":"TN","district":"Thiruvallur","district_code":"THI","name":"3 4 5 List of Polling Stations for  1   GUMMIDIPOONDI   Assembly Segment within the 1   THIRUVALLUR (SC)  Parliamentary Constituency 72","assembly_constituency":"GUMMIDIPOONDI","latitude":13.0,"longitude":80.0,"metadata":{"data_source":"ECI_Official_2024","ac_number":1}},{"station_id":"TN_THI_PS00004","state":"Tamil Nadu","state_code":"TN","district":"Thiruvallur","district_code":"THI","name":"5 List of Polling Stations for  1   GUMMIDIPOONDI   Assembly Segment within the 1   THIRUVALLUR (SC)  Parliamentary Constituency 72 72 Panchayat Union Primary School,","assembly_constituency":"GUMMIDIPOONDI","latitude":13.0,"longitude":80.0,"metadata":{"data_source":"ECI_Official_2024","ac_number":1}},{"station_id":"TN_THI_PS00072","state":"Tamil Nadu","state_code":"TN","district":"Thiruvallur","district_code":"THI","name":"Panchayat Union Primary School, North Building South Facing (West Room), Nemallur-601202","assembly_constituency":"GUMMIDIPOONDI","latitude":13.0872,"longitude":80.2772,"metadata":{"data_source":"ECI_Official_2024","ac_number":1}},{"station_id":"TN_THI_PS00073","state":"Tamil Nadu","state_code":"TN","district":"Thiruvallur","district_code":"THI","name":"Panchayat Union Primary School, North Building South Facing, East Room, Nemallur-601202","assembly_constituency":"GUMMIDIPOONDI","latitude":13.0873,"longitude":80.2773,"metadata":{"data_source":"ECI_Official_2024","ac_number":1}},{"station_id":"TN_THI_PS00074","state":"Tamil Nadu","state_code":"TN","district":"Thiruvallur","district_code":"THI","name":"Don Bosco Matric School North Building South Facing Room No-1, Nemallur-601202","assembly_constituency":"GUMMIDIPOONDI","latitude":13.0874,"longitude":80.2774,"metadata":{"data_source":"ECI_Official_2024","ac_number":1}},{"station_id":"TN_THI_PS00075","state":"Tamil Nadu","state_code":"TN","district":"Thiruvallur","district_code":"THI","name":"Don Bosco Matric School North Building South Facing Room No-2, Nemallur-601202","assembly_constituency":"GUMMIDIPOONDI","latitude":13.0875,"longitude":80.27749999999999,"metadata":{"data_source":"ECI_Official_2024","ac_number":1}},{"station_id":"TN_THI_PS00076","state":"Tamil Nadu","state_code":"TN","district":"Thiruvallur","district_code":"THI","name":"Panchayat Union Primary School, S S A Building West Building East Faicng, Bommaji Kulam-601202","assembly_constituency":"GUMMIDIPOONDI","latitude":13.0876,"longitude":80.27759999999999,"metadata":{"data_source":"ECI_Official_2024","ac_number":1}},{"station_id":"TN_THI_PS00077","state":"Tamil Nadu","state_code":"TN","district":"Thiruvallur","district_code":"THI","name":"Panchayat Union Primary School South Building North Facing, Pathirivedu (East)-601202","assembly_constituency":"GUMMIDIPOONDI","latitude":13.0877,"longitude":80.2777,"metadata":{"data_source":"ECI_Official_2024","ac_number":1}},{"station_id":"TN_THI_PS00078","state":"Tamil Nadu","state_code":"TN","district":"Thiruvallur","district_code":"THI","name":"Panchayat Union Primary School North Buliding South Faching, Pathirivedu (East)-601202","assembly_constituency":"GUMMIDIPOONDI","latitude":13.0878,"longitude":80.2778,"metadata":{"data_source":"ECI_Official_2024","ac_number":1}},{"station_id":"TN_THI_PS00079","state":"Tamil Nadu","state_code":"TN","district":"Thiruvallur","district_code":"THI","name":"Panchayat Union Primary School, East Building West Facing, Pathirivedu (East)-601202","assembly_constituency":"GUMMIDIPOONDI","latitude":13.0879,"longitude":80.2779,"metadata":{"data_source":"ECI_Official_2024","ac_number":1}},{"station_id":"TN_THI_PS00002","state":"Tamil Nadu","state_code":"TN","district":"Thiruvallur","district_code":"THI","name":"3 4 5 List of Polling Stations for  1   GUMMIDIPOONDI   Assembly Segment within the 1   THIRUVALLUR (SC)  Parliamentary Constituency 80","assembly_constituency":"GUMMIDIPOONDI","latitude":13.0,"longitude":80.0,"metadata":{"data_source":"ECI_Official_2024","ac_number":1}},{"station_id":"TN_THI_PS00004","state":"Tamil Nadu","state_code":"TN","district":"Thiruvallur","district_code":"THI","name":"5 List of Polling Stations for  1   GUMMIDIPOONDI   Assembly Segment within the 1   THIRUVALLUR (SC)  Parliamentary Constituency 80 80 Panchayat Union Middle School ,","assembly_constituency":"GUMMIDIPOONDI","latitude":13.0,"longitude":80.0,"metadata":{"data_source":"ECI_Official_2024","ac_number":1}},{"station_id":"TN_THI_PS00080","state":"Tamil Nadu","state_code":"TN","district":"Thiruvallur","district_code":"THI","name":"Panchayat Union Middle School , North Building South Facing, Pathirivedu (West)-601202","assembly_constituency":"GUMMIDIPOONDI","latitude":13.088,"longitude":80.27799999999999,"metadata":{"data_source":"ECI_Official_2024","ac_number":1}},{"station_id":"TN_THI_PS00081","state":"Tamil Nadu","state_code":"TN","district":"Thiruvallur","district_code":"THI","name":"Government High School, North Buliding South Facing ,Poovalambedu-601206","assembly_constituency":"GUMMIDIPOONDI","latitude":13.0881,"longitude":80.2781,"metadata":{"data_source":"ECI_Official_2024","ac_number":1}},{"station_id":"TN_THI_PS00082","state":"Tamil Nadu","state_code":"TN","district":"Thiruvallur","district_code":"THI","name":"Panchayat Primary School South Building North Facing New buliding ,Poovalambedu-601206","assembly_constituency":"GUMMIDIPOONDI","latitude":13.0882,"longitude":80.2782,"metadata":{"data_source":"ECI_Official_2024","ac_number":1}},{"station_id":"TN_THI_PS00083","state":"Tamil Nadu","state_code":"TN","district":"Thiruvallur","district_code":"THI","name":"Panchayat Union Primary School,West Side East Facing, Vaniyamalli-601202","assembly_constituency":"GUMMIDIPOONDI","latitude":13.0883,"longitude":80.2783,"metadata":{"data_source":"ECI_Official_2024","ac_number":1}},{"station_id":"TN_THI_PS00084","state":"Tamil Nadu","state_code":"TN","district":"Thiruvallur","district_code":"THI","name":"Panchayat Union Middle School, North Building, South Facing, West side Room, Thanipoondi - 601202","assembly_constituency":"GUMMIDIPOONDI","latitude":13.0884,"longitude":80.27839999999999,"metadata":{"data_source":"ECI_Official_2024","ac_number":1}},{"station_id":"TN_THI_PS00085","state":"Tamil Nadu","state_code":"TN","district":"Thiruvallur","district_code":"THI","name":"Panchayat Union Primary School, West Building East Facing, Guruvaraja Kandigai-601201","assembly_constituency":"GUMMIDIPOONDI","latitude":13.0885,"longitude":80.2785,"metadata":{"data_source":"ECI_Official_2024","ac_number":1}},{"station_id":"TN_THI_PS00086","state":"Tamil Nadu","state_code":"TN","district":"Thiruvallur","district_code":"THI","name":"Panchayat Union Primary School, South Building North Facing, Guruvaraja Kandigai-601201","assembly_constituency":"GUMMIDIPOONDI","latitude":13.0886,"longitude":80.2786,"metadata":{"data_source":"ECI_Official_2024","ac_number":1}},{"station_id":"TN_THI_PS00087","state":"Tamil Nadu","state_code":"TN","district":"Thiruvallur","district_code":"THI","name":"Panchayat Union Primary School, North Building South Facing Facing, Billakuppam-601201","assembly_constituency":"GUMMIDIPOONDI","latitude":13.0887,"longitude":80.2787,"metadata":{"data_source":"ECI_Official_2024","ac_number":1}},{"station_id":"TN_THI_PS00088","state":"Tamil Nadu","state_code":"TN","district":"Thiruvallur","district_code":"THI","name":"Panchayat Union Middle School,South Building North Facing, Sirupuzhal Pettai-601201","assembly_constituency":"GUMMIDIPOONDI","latitude":13.0888,"longitude":80.27879999999999,"metadata":{"data_source":"ECI_Official_2024","ac_number":1}},{"station_id":"TN_THI_PS00002","state":"Tamil Nadu","state_code":"TN","district":"Thiruvallur","district_code":"THI","name":"3 4 5 List of Polling Stations for  1   GUMMIDIPOONDI   Assembly Segment within the 1   THIRUVALLUR (SC)  Parliamentary Constituency 89","assembly_constituency":"GUMMIDIPOONDI","latitude":13.0,"longitude":80.0,"metadata":{"data_source":"ECI_Official_2024","ac_number":1}},{"station_id":"TN_THI_PS00004","state":"Tamil Nadu","state_code":"TN","district":"Thiruvallur","district_code":"THI","name":"5 List of Polling Stations for  1   GUMMIDIPOONDI   Assembly Segment within the 1   THIRUVALLUR (SC)  Parliamentary Constituency 89 89 Panchayat Union Middle School,","assembly_constituency":"GUMMIDIPOONDI","latitude":13.0,"longitude":80.0,"metadata":{"data_source":"ECI_Official_2024","ac_number":1}},{"station_id":"TN_THI_PS00089","state":"Tamil Nadu","state_code":"TN","district":"Thiruvallur","district_code":"THI","name":"Panchayat Union Middle School, West New Building East Facing, Sirupuzhal Pettai-601201","assembly_constituency":"GUMMIDIPOONDI","latitude":13.0889,"longitude":80.2789,"metadata":{"data_source":"ECI_Official_2024","ac_number":1}},{"station_id":"TN_THI_PS00090","state":"Tamil Nadu","state_code":"TN","district":"Thiruvallur","district_code":"THI","name":"Panchayat Union Primary School, East Building West Facing , Pathapalayam-601201","assembly_constituency":"GUMMIDIPOONDI","latitude":13.089,"longitude":80.279,"metadata":{"data_source":"ECI_Official_2024","ac_number":1}},{"station_id":"TN_THI_PS00091","state":"Tamil Nadu","state_code":"TN","district":"Thiruvallur","district_code":"THI","name":"Government High School, South Building East Facing, North side room, Chitharaja Kandigai-601201","assembly_constituency":"GUMMIDIPOONDI","latitude":13.0891,"longitude":80.2791,"metadata":{"data_source":"ECI_Official_2024","ac_number":1}},{"station_id":"TN_THI_PS00092","state":"Tamil Nadu","state_code":"TN","district":"Thiruvallur","district_code":"THI","name":"Panchayat Union Primary School,West Building East Facing, Chitharaja Kandigai-601201","assembly_constituency":"GUMMIDIPOONDI","latitude":13.0892,"longitude":80.2792,"metadata":{"data_source":"ECI_Official_2024","ac_number":1}},{"station_id":"TN_THI_PS00093","state":"Tamil Nadu","state_code":"TN","district":"Thiruvallur","district_code":"THI","name":"Panchayat Union Primary School,South Building North Facing, Chitharaja kandigai-601201","assembly_constituency":"GUMMIDIPOONDI","latitude":13.0893,"longitude":80.27929999999999,"metadata":{"data_source":"ECI_Official_2024","ac_number":1}},{"station_id":"TN_THI_PS00094","state":"Tamil Nadu","state_code":"TN","district":"Thiruvallur","district_code":"THI","name":"Panchayat Union Middle School,North Building South Facing, Samyreddykandigai-601201","assembly_constituency":"GUMMIDIPOONDI","latitude":13.0894,"longitude":80.2794,"metadata":{"data_source":"ECI_Official_2024","ac_number":1}},{"station_id":"TN_THI_PS00095","state":"Tamil Nadu","state_code":"TN","district":"Thiruvallur","district_code":"THI","name":"Panchayat Union Middle School,West Building East Facing, Samyreddykandigaii-601201","assembly_constituency":"GUMMIDIPOONDI","latitude":13.0895,"longitude":80.2795,"metadata":{"data_source":"ECI_Official_2024","ac_number":1}},{"station_id":"TN_THI_PS00096","state":"Tamil Nadu","state_code":"TN","district":"Thiruvallur","district_code":"THI","name":"Panchayat Union Middle School,North Building South Facing , Samyreddykandigai-601201","assembly_constituency":"GUMMIDIPOONDI","latitude":13.0896,"longitude":80.2796,"metadata":{"data_source":"ECI_Official_2024","ac_number":1}},{"station_id":"TN_THI_PS00002","state":"Tamil Nadu","state_code":"TN","district":"Thiruvallur","district_code":"THI","name":"3 4 5 List of Polling Stations for  1   GUMMIDIPOONDI   Assembly Segment within the 1   THIRUVALLUR (SC)  Parliamentary Constituency 97","assembly_constituency":"GUMMIDIPOONDI","latitude":13.0,"longitude":80.0,"metadata":{"data_source":"ECI_Official_2024","ac_number":1}},{"station_id":"TN_THI_PS00004","state":"Tamil Nadu","state_code":"TN","district":"Thiruvallur","district_code":"THI","name":"5 List of Polling Stations for  1   GUMMIDIPOONDI   Assembly Segment within the 1   THIRUVALLUR (SC)  Parliamentary Constituency 97 97 Panchayat Union Middle School,","assembly_constituency":"GUMMIDIPOONDI","latitude":13.0,"longitude":80.0,"metadata":{"data_source":"ECI_Official_2024","ac_number":1}},{"station_id":"TN_THI_PS00097","state":"Tamil Nadu","state_code":"TN","district":"Thiruvallur","district_code":"THI","name":"Panchayat Union Middle School, South Building North Facing Room No-1, Samyreddykandigai-601201","assembly_constituency":"GUMMIDIPOONDI","latitude":13.0897,"longitude":80.27969999999999,"metadata":{"data_source":"ECI_Official_2024","ac_number":1}},{"station_id":"TN_THI_PS00098","state":"Tamil Nadu","state_code":"TN","district":"Thiruvallur","district_code":"THI","name":"Panchayat Union Middle School, South Building North Facing Room No-2, Samyreddykandigai-601201","assembly_constituency":"GUMMIDIPOONDI","latitude":13.0898,"longitude":80.2798,"metadata":{"data_source":"ECI_Official_2024","ac_number":1}},{"station_id":"TN_THI_PS00099","state":"Tamil Nadu","state_code":"TN","district":"Thiruvallur","district_code":"THI","name":"Community Hall,Thervazhi Panchayat Union Primary School Camps , South Building North Facing","assembly_constituency":"GUMMIDIPOONDI","latitude":13.0899,"longitude":80.2799,"metadata":{"data_source":"ECI_Official_2024","ac_number":1}},{"station_id":"TN_THI_PS00100","state":"Tamil Nadu","state_code":"TN","district":"Thiruvallur","district_code":"THI","name":"Panchayat Union Middle School, West Building East Facing , Nethaji Nagar Thervazhi-601201","assembly_constituency":"GUMMIDIPOONDI","latitude":13.09,"longitude":80.28,"metadata":{"data_source":"ECI_Official_2024","ac_number":1}},{"station_id":"TN_THI_PS00101","state":"Tamil Nadu","state_code":"TN","district":"Thiruvallur","district_code":"THI","name":"Panchayat Union Middle School, SSA Building East Building West Facing , Nethaji Nagar Thervazhi-601201","assembly_constituency":"GUMMIDIPOONDI","latitude":13.0901,"longitude":80.28009999999999,"metadata":{"data_source":"ECI_Official_2024","ac_number":1}},{"station_id":"TN_THI_PS00102","state":"Tamil Nadu","state_code":"TN","district":"Thiruvallur","district_code":"THI","name":"Panchayat Union Primary School, South Building North Facing, Thervazhi-601201","assembly_constituency":"GUMMIDIPOONDI","latitude":13.0902,"longitude":80.2802,"metadata":{"data_source":"ECI_Official_2024","ac_number":1}},{"station_id":"TN_THI_PS00103","state":"Tamil Nadu","state_code":"TN","district":"Thiruvallur","district_code":"THI","name":"Panchayat Union Primary School,South Building North Facing, East Side Room, Thervazhi-601201","assembly_constituency":"GUMMIDIPOONDI","latitude":13.090300000000001,"longitude":80.2803,"metadata":{"data_source":"ECI_Official_2024","ac_number":1}},{"station_id":"TN_THI_PS00104","state":"Tamil Nadu","state_code":"TN","district":"Thiruvallur","district_code":"THI","name":"Panchayat Union Middle School West Buliding East Faching, Nethaji Nagar Thervazhi-601201","assembly_constituency":"GUMMIDIPOONDI","latitude":13.0904,"longitude":80.2804,"metadata":{"data_source":"ECI_Official_2024","ac_number":1}},{"station_id":"TN_THI_PS00002","state":"Tamil Nadu","state_code":"TN","district":"Thiruvallur","district_code":"THI","name":"3 4 5 List of Polling Stations for  1   GUMMIDIPOONDI   Assembly Segment within the 1   THIRUVALLUR (SC)  Parliamentary Constituency 105","assembly_constituency":"GUMMIDIPOONDI","latitude":13.0,"longitude":80.0,"metadata":{"data_source":"ECI_Official_2024","ac_number":1}},{"station_id":"TN_THI_PS00004","state":"Tamil Nadu","state_code":"TN","district":"Thiruvallur","district_code":"THI","name":"5 List of Polling Stations for  1   GUMMIDIPOONDI   Assembly Segment within the 1   THIRUVALLUR (SC)  Parliamentary Constituency 105 105 Panchayat Union Primary School,","assembly_constituency":"GUMMIDIPOONDI","latitude":13.0,"longitude":80.0,"metadata":{"data_source":"ECI_Official_2024","ac_number":1}},{"station_id":"TN_THI_PS00105","state":"Tamil Nadu","state_code":"TN","district":"Thiruvallur","district_code":"THI","name":"Panchayat Union Primary School, West Building East Faicng, Thambureddy Palayam-601201","assembly_constituency":"GUMMIDIPOONDI","latitude":13.0905,"longitude":80.28049999999999,"metadata":{"data_source":"ECI_Official_2024","ac_number":1}},{"station_id":"TN_THI_PS00106","state":"Tamil Nadu","state_code":"TN","district":"Thiruvallur","district_code":"THI","name":"Panchayat Union Middle School South Building North Facing, Kammavar Palayam-601201","assembly_constituency":"GUMMIDIPOONDI","latitude":13.0906,"longitude":80.28059999999999,"metadata":{"data_source":"ECI_Official_2024","ac_number":1}},{"station_id":"TN_THI_PS00107","state":"Tamil Nadu","state_code":"TN","district":"Thiruvallur","district_code":"THI","name":"Government High School, South Building North Facing, Athupakkam- 601201","assembly_constituency":"GUMMIDIPOONDI","latitude":13.0907,"longitude":80.2807,"metadata":{"data_source":"ECI_Official_2024","ac_number":1}},{"station_id":"TN_THI_PS00108","state":"Tamil Nadu","state_code":"TN","district":"Thiruvallur","district_code":"THI","name":"Government High School,South Building North Facing, Room No.8, Athupakkam 601201","assembly_constituency":"GUMMIDIPOONDI","latitude":13.0908,"longitude":80.2808,"metadata":{"data_source":"ECI_Official_2024","ac_number":1}},{"station_id":"TN_THI_PS00109","state":"Tamil Nadu","state_code":"TN","district":"Thiruvallur","district_code":"THI","name":"Panchayat Union Primary School, West Building East Faicng, Vazhuthalam Bedu-601201","assembly_constituency":"GUMMIDIPOONDI","latitude":13.0909,"longitude":80.2809,"metadata":{"data_source":"ECI_Official_2024","ac_number":1}},{"station_id":"TN_THI_PS00110","state":"Tamil Nadu","state_code":"TN","district":"Thiruvallur","district_code":"THI","name":"Village Panchayat Service Centre, Vazhuthalambedu,South Side Building North Facing Vazhuthalambedu","assembly_constituency":"GUMMIDIPOONDI","latitude":13.091,"longitude":80.28099999999999,"metadata":{"data_source":"ECI_Official_2024","ac_number":1}},{"station_id":"TN_THI_PS00111","state":"Tamil Nadu","state_code":"TN","district":"Thiruvallur","district_code":"THI","name":"Government Primary School, North Building South Facing Room no-1, Rettambedu-601201","assembly_constituency":"GUMMIDIPOONDI","latitude":13.0911,"longitude":80.2811,"metadata":{"data_source":"ECI_Official_2024","ac_number":1}},{"station_id":"TN_THI_PS00112","state":"Tamil Nadu","state_code":"TN","district":"Thiruvallur","district_code":"THI","name":"Panchayat Union Primary School, ,East Building West Facing, Kuruviagaram-601201","assembly_constituency":"GUMMIDIPOONDI","latitude":13.0912,"longitude":80.2812,"metadata":{"data_source":"ECI_Official_2024","ac_number":1}},{"station_id":"TN_THI_PS00113","state":"Tamil Nadu","state_code":"TN","district":"Thiruvallur","district_code":"THI","name":"Panchayat Union Middle School, North Building South Facing, Ayanallur-601201","assembly_constituency":"GUMMIDIPOONDI","latitude":13.0913,"longitude":80.2813,"metadata":{"data_source":"ECI_Official_2024","ac_number":1}},{"station_id":"TN_THI_PS00002","state":"Tamil Nadu","state_code":"TN","district":"Thiruvallur","district_code":"THI","name":"3 4 5 List of Polling Stations for  1   GUMMIDIPOONDI   Assembly Segment within the 1   THIRUVALLUR (SC)  Parliamentary Constituency 114","assembly_constituency":"GUMMIDIPOONDI","latitude":13.0,"longitude":80.0,"metadata":{"data_source":"ECI_Official_2024","ac_number":1}},{"station_id":"TN_THI_PS00004","state":"Tamil Nadu","state_code":"TN","district":"Thiruvallur","district_code":"THI","name":"5 List of Polling Stations for  1   GUMMIDIPOONDI   Assembly Segment within the 1   THIRUVALLUR (SC)  Parliamentary Constituency 114 114 Panchayat Union Middle School,","assembly_constituency":"GUMMIDIPOONDI","latitude":13.0,"longitude":80.0,"metadata":{"data_source":"ECI_Official_2024","ac_number":1}},{"station_id":"TN_THI_PS00114","state":"Tamil Nadu","state_code":"TN","district":"Thiruvallur","district_code":"THI","name":"Panchayat Union Middle School, South Building North Facing , Ayanallur-601201","assembly_constituency":"GUMMIDIPOONDI","latitude":13.0914,"longitude":80.28139999999999,"metadata":{"data_source":"ECI_Official_2024","ac_number":1}},{"station_id":"TN_THI_PS00115","state":"Tamil Nadu","state_code":"TN","district":"Thiruvallur","district_code":"THI","name":"Panchayat Union Primary School, East Building West Facing, Enathimelpakkam-601201","assembly_constituency":"GUMMIDIPOONDI","latitude":13.0915,"longitude":80.2815,"metadata":{"data_source":"ECI_Official_2024","ac_number":1}},{"station_id":"TN_THI_PS00116","state":"Tamil Nadu","state_code":"TN","district":"Thiruvallur","district_code":"THI","name":"Panchayat Union Primary School, west Building East Facing, Periya Sozhiyampakkam-601201","assembly_constituency":"GUMMIDIPOONDI","latitude":13.0916,"longitude":80.2816,"metadata":{"data_source":"ECI_Official_2024","ac_number":1}},{"station_id":"TN_THI_PS00117","state":"Tamil Nadu","state_code":"TN","district":"Thiruvallur","district_code":"THI","name":"Panchayat Union Middle School, South Building North Facing , Guruvattucheri-601201","assembly_constituency":"GUMMIDIPOONDI","latitude":13.0917,"longitude":80.2817,"metadata":{"data_source":"ECI_Official_2024","ac_number":1}},{"station_id":"TN_THI_PS00118","state":"Tamil Nadu","state_code":"TN","district":"Thiruvallur","district_code":"THI","name":"Block Panchayat Service Center North Building South Facing , Old Gummidipoondi-601201","assembly_constituency":"GUMMIDIPOONDI","latitude":13.0918,"longitude":80.28179999999999,"metadata":{"data_source":"ECI_Official_2024","ac_number":1}},{"station_id":"TN_THI_PS00119","state":"Tamil Nadu","state_code":"TN","district":"Thiruvallur","district_code":"THI","name":"Block Panchayat Service Center South Building North Facing , Old Gummidipoondi (East)-601201","assembly_constituency":"GUMMIDIPOONDI","latitude":13.0919,"longitude":80.2819,"metadata":{"data_source":"ECI_Official_2024","ac_number":1}},{"station_id":"TN_THI_PS00120","state":"Tamil Nadu","state_code":"TN","district":"Thiruvallur","district_code":"THI","name":"Panchayat Union Primary School, East Building West Facing , Old Gummidipoondi (East) -601201","assembly_constituency":"GUMMIDIPOONDI","latitude":13.092,"longitude":80.282,"metadata":{"data_source":"ECI_Official_2024","ac_number":1}},{"station_id":"TN_THI_PS00002","state":"Tamil Nadu","state_code":"TN","district":"Thiruvallur","district_code":"THI","name":"3 4 5 List of Polling Stations for  1   GUMMIDIPOONDI   Assembly Segment within the 1   THIRUVALLUR (SC)  Parliamentary Constituency 121","assembly_constituency":"GUMMIDIPOONDI","latitude":13.0,"longitude":80.0,"metadata":{"data_source":"ECI_Official_2024","ac_number":1}},{"station_id":"TN_THI_PS00004","state":"Tamil Nadu","state_code":"TN","district":"Thiruvallur","district_code":"THI","name":"5 List of Polling Stations for  1   GUMMIDIPOONDI   Assembly Segment within the 1   THIRUVALLUR (SC)  Parliamentary Constituency 121 121 Community Hall, South Building,","assembly_constituency":"GUMMIDIPOONDI","latitude":13.0,"longitude":80.0,"metadata":{"data_source":"ECI_Official_2024","ac_number":1}},{"station_id":"TN_THI_PS00121","state":"Tamil Nadu","state_code":"TN","district":"Thiruvallur","district_code":"THI","name":"Community Hall, South Building, North Facing, Gummidipoondi Town Panchayat Office Back side, Mettu Street,Old Gummidipoondi-601201","assembly_constituency":"GUMMIDIPOONDI","latitude":13.0921,"longitude":80.2821,"metadata":{"data_source":"ECI_Official_2024","ac_number":1}},{"station_id":"TN_THI_PS00122","state":"Tamil Nadu","state_code":"TN","district":"Thiruvallur","district_code":"THI","name":"K L K Panchayat Union Primary School, North Building South Facing Room No-1, Old Gummidipoondi- 601201","assembly_constituency":"GUMMIDIPOONDI","latitude":13.0922,"longitude":80.2822,"metadata":{"data_source":"ECI_Official_2024","ac_number":1}},{"station_id":"TN_THI_PS00123","state":"Tamil Nadu","state_code":"TN","district":"Thiruvallur","district_code":"THI","name":"K L K Panchayat Union Primary School, North Building South Facing Room No-2, Old Gummidipoondi - 601201","assembly_constituency":"GUMMIDIPOONDI","latitude":13.0923,"longitude":80.28229999999999,"metadata":{"data_source":"ECI_Official_2024","ac_number":1}},{"station_id":"TN_THI_PS00124","state":"Tamil Nadu","state_code":"TN","district":"Thiruvallur","district_code":"THI","name":"K L K Panchayat Union Primary School, West Building East Facing, Old Gummidipoondi-601201","assembly_constituency":"GUMMIDIPOONDI","latitude":13.0924,"longitude":80.2824,"metadata":{"data_source":"ECI_Official_2024","ac_number":1}},{"station_id":"TN_THI_PS00125","state":"Tamil Nadu","state_code":"TN","district":"Thiruvallur","district_code":"THI","name":"K L K Panchayat Union Primary School, West Building C V Raman Room East Facing, Old Gummidipoondi-601201","assembly_constituency":"GUMMIDIPOONDI","latitude":13.0925,"longitude":80.2825,"metadata":{"data_source":"ECI_Official_2024","ac_number":1}},{"station_id":"TN_THI_PS00126","state":"Tamil Nadu","state_code":"TN","district":"Thiruvallur","district_code":"THI","name":"K L K Panchayat Union Primary School, North Building South Facing Room No-1, Old Gummidipoondi- 601201","assembly_constituency":"GUMMIDIPOONDI","latitude":13.0922,"longitude":80.2822,"metadata":{"data_source":"ECI_Official_2024","ac_number":1}},{"station_id":"TN_THI_PS00127","state":"Tamil Nadu","state_code":"TN","district":"Thiruvallur","district_code":"THI","name":"K L K Panchayat Union Primary School, North Building South Facing Room No-2, Old Gummidipoondi- 601201","assembly_constituency":"GUMMIDIPOONDI","latitude":13.0927,"longitude":80.28269999999999,"metadata":{"data_source":"ECI_Official_2024","ac_number":1}},{"station_id":"TN_THI_PS00002","state":"Tamil Nadu","state_code":"TN","district":"Thiruvallur","district_code":"THI","name":"3 4 5 List of Polling Stations for  1   GUMMIDIPOONDI   Assembly Segment within the 1   THIRUVALLUR (SC)  Parliamentary Constituency 128","assembly_constituency":"GUMMIDIPOONDI","latitude":13.0,"longitude":80.0,"metadata":{"data_source":"ECI_Official_2024","ac_number":1}},{"station_id":"TN_THI_PS00004","state":"Tamil Nadu","state_code":"TN","district":"Thiruvallur","district_code":"THI","name":"5 List of Polling Stations for  1   GUMMIDIPOONDI   Assembly Segment within the 1   THIRUVALLUR (SC)  Parliamentary Constituency 128 128 K L K Panchayat Union Primary","assembly_constituency":"GUMMIDIPOONDI","latitude":13.0,"longitude":80.0,"metadata":{"data_source":"ECI_Official_2024","ac_number":1}},{"station_id":"TN_THI_PS00128","state":"Tamil Nadu","state_code":"TN","district":"Thiruvallur","district_code":"THI","name":"K L K Panchayat Union Primary School, East Building West Facing, Old Gummidipoondi-601201","assembly_constituency":"GUMMIDIPOONDI","latitude":13.0928,"longitude":80.2828,"metadata":{"data_source":"ECI_Official_2024","ac_number":1}},{"station_id":"TN_THI_PS00129","state":"Tamil Nadu","state_code":"TN","district":"Thiruvallur","district_code":"THI","name":"K.L.K.Govt higher Sec Boys School, , North Building,South Facing,Old Gummidipoondi,","assembly_constituency":"GUMMIDIPOONDI","latitude":13.0929,"longitude":80.2829,"metadata":{"data_source":"ECI_Official_2024","ac_number":1}},{"station_id":"TN_THI_PS00130","state":"Tamil Nadu","state_code":"TN","district":"Thiruvallur","district_code":"THI","name":"K L K Government Higher Secondary School, North Building South Facing, Old Gummidipoondi-601201","assembly_constituency":"GUMMIDIPOONDI","latitude":13.093,"longitude":80.283,"metadata":{"data_source":"ECI_Official_2024","ac_number":1}},{"station_id":"TN_THI_PS00131","state":"Tamil Nadu","state_code":"TN","district":"Thiruvallur","district_code":"THI","name":"K L K Government Higher Secondary School, North Building South Facing, Old Gummidipoondi-601201","assembly_constituency":"GUMMIDIPOONDI","latitude":13.093,"longitude":80.283,"metadata":{"data_source":"ECI_Official_2024","ac_number":1}},{"station_id":"TN_THI_PS00132","state":"Tamil Nadu","state_code":"TN","district":"Thiruvallur","district_code":"THI","name":"K L K Government Higher Secondary School, North Building South Facing, Old Gummidipoondi (East)-601201","assembly_constituency":"GUMMIDIPOONDI","latitude":13.0932,"longitude":80.2832,"metadata":{"data_source":"ECI_Official_2024","ac_number":1}},{"station_id":"TN_THI_PS00002","state":"Tamil Nadu","state_code":"TN","district":"Thiruvallur","district_code":"THI","name":"3 4 5 List of Polling Stations for  1   GUMMIDIPOONDI   Assembly Segment within the 1   THIRUVALLUR (SC)  Parliamentary Constituency 133","assembly_constituency":"GUMMIDIPOONDI","latitude":13.0,"longitude":80.0,"metadata":{"data_source":"ECI_Official_2024","ac_number":1}},{"station_id":"TN_THI_PS00004","state":"Tamil Nadu","state_code":"TN","district":"Thiruvallur","district_code":"THI","name":"5 List of Polling Stations for  1   GUMMIDIPOONDI   Assembly Segment within the 1   THIRUVALLUR (SC)  Parliamentary Constituency 133 133 K L K Government Higher Secondary","assembly_constituency":"GUMMIDIPOONDI","latitude":13.0,"longitude":80.0,"metadata":{"data_source":"ECI_Official_2024","ac_number":1}},{"station_id":"TN_THI_PS00133","state":"Tamil Nadu","state_code":"TN","district":"Thiruvallur","district_code":"THI","name":"K L K Government Higher Secondary School Room No 18, South Building North Facing, Old Gummidipoondi (East)-601201","assembly_constituency":"GUMMIDIPOONDI","latitude":13.0933,"longitude":80.2833,"metadata":{"data_source":"ECI_Official_2024","ac_number":1}},{"station_id":"TN_THI_PS00134","state":"Tamil Nadu","state_code":"TN","district":"Thiruvallur","district_code":"THI","name":"Panchayat Union Primary School,East Building West Facing, Viveganathar Nagar,Old Gummidipoondi-601201","assembly_constituency":"GUMMIDIPOONDI","latitude":13.0934,"longitude":80.2834,"metadata":{"data_source":"ECI_Official_2024","ac_number":1}},{"station_id":"TN_THI_PS00135","state":"Tamil Nadu","state_code":"TN","district":"Thiruvallur","district_code":"THI","name":"Anganwadi Centre, North Building, West Facing, Vivekananda Nagar, Old Gummidipoondi -601201","assembly_constituency":"GUMMIDIPOONDI","latitude":13.0935,"longitude":80.28349999999999,"metadata":{"data_source":"ECI_Official_2024","ac_number":1}},{"station_id":"TN_THI_PS00136","state":"Tamil Nadu","state_code":"TN","district":"Thiruvallur","district_code":"THI","name":"Panchayat Union Primary School,East Building West Facing, Viveganathar Nagar,Old Gummidipoondi -601201","assembly_constituency":"GUMMIDIPOONDI","latitude":13.0936,"longitude":80.28359999999999,"metadata":{"data_source":"ECI_Official_2024","ac_number":1}},{"station_id":"TN_THI_PS00137","state":"Tamil Nadu","state_code":"TN","district":"Thiruvallur","district_code":"THI","name":"Panchayat Union Primary School,South Building North Facing , Viveganathar Nagar,Old Gummidipoondi-601201","assembly_constituency":"GUMMIDIPOONDI","latitude":13.0937,"longitude":80.2837,"metadata":{"data_source":"ECI_Official_2024","ac_number":1}},{"station_id":"TN_THI_PS00002","state":"Tamil Nadu","state_code":"TN","district":"Thiruvallur","district_code":"THI","name":"3 4 5 List of Polling Stations for  1   GUMMIDIPOONDI   Assembly Segment within the 1   THIRUVALLUR (SC)  Parliamentary Constituency 138","assembly_constituency":"GUMMIDIPOONDI","latitude":13.0,"longitude":80.0,"metadata":{"data_source":"ECI_Official_2024","ac_number":1}},{"station_id":"TN_THI_PS00004","state":"Tamil Nadu","state_code":"TN","district":"Thiruvallur","district_code":"THI","name":"5 List of Polling Stations for  1   GUMMIDIPOONDI   Assembly Segment within the 1   THIRUVALLUR (SC)  Parliamentary Constituency 138 138 Panchayat Union Primary School","assembly_constituency":"GUMMIDIPOONDI","latitude":13.0,"longitude":80.0,"metadata":{"data_source":"ECI_Official_2024","ac_number":1}},{"station_id":"TN_THI_PS00138","state":"Tamil Nadu","state_code":"TN","district":"Thiruvallur","district_code":"THI","name":"Panchayat Union Primary School North Building East Facing Room No- 1, New Gummidipoondi-601201","assembly_constituency":"GUMMIDIPOONDI","latitude":13.0938,"longitude":80.2838,"metadata":{"data_source":"ECI_Official_2024","ac_number":1}},{"station_id":"TN_THI_PS00139","state":"Tamil Nadu","state_code":"TN","district":"Thiruvallur","district_code":"THI","name":"Panchayat Union Primary School North Building East Facing Room No- 2, New Gummidipoondi-601201","assembly_constituency":"GUMMIDIPOONDI","latitude":13.0939,"longitude":80.2839,"metadata":{"data_source":"ECI_Official_2024","ac_number":1}},{"station_id":"TN_THI_PS00140","state":"Tamil Nadu","state_code":"TN","district":"Thiruvallur","district_code":"THI","name":"Panchayat Union Primary School,South Building North Facing, New Gummidipoondi-601201","assembly_constituency":"GUMMIDIPOONDI","latitude":13.094,"longitude":80.28399999999999,"metadata":{"data_source":"ECI_Official_2024","ac_number":1}},{"station_id":"TN_THI_PS00141","state":"Tamil Nadu","state_code":"TN","district":"Thiruvallur","district_code":"THI","name":"Panchayat Union Primary School , West Building East Facing Room No- 1, New Gummidipoondi-601201","assembly_constituency":"GUMMIDIPOONDI","latitude":13.094100000000001,"longitude":80.2841,"metadata":{"data_source":"ECI_Official_2024","ac_number":1}},{"station_id":"TN_THI_PS00142","state":"Tamil Nadu","state_code":"TN","district":"Thiruvallur","district_code":"THI","name":"Panchayat Union Primary School , West Building East Facing Room No- 2, New Gummidipoondi-601201","assembly_constituency":"GUMMIDIPOONDI","latitude":13.0942,"longitude":80.2842,"metadata":{"data_source":"ECI_Official_2024","ac_number":1}},{"station_id":"TN_THI_PS00143","state":"Tamil Nadu","state_code":"TN","district":"Thiruvallur","district_code":"THI","name":"Community Hall,South Building North Facing,New Gummidipoondi","assembly_constituency":"GUMMIDIPOONDI","latitude":13.0943,"longitude":80.2843,"metadata":{"data_source":"ECI_Official_2024","ac_number":1}},{"station_id":"TN_THI_PS00144","state":"Tamil Nadu","state_code":"TN","district":"Thiruvallur","district_code":"THI","name":"Panchayat Union Primary School , North Building South Facing Room No--1, New Gummidipoondi-601201","assembly_constituency":"GUMMIDIPOONDI","latitude":13.0944,"longitude":80.28439999999999,"metadata":{"data_source":"ECI_Official_2024","ac_number":1}},{"station_id":"TN_THI_PS00002","state":"Tamil Nadu","state_code":"TN","district":"Thiruvallur","district_code":"THI","name":"3 4 5 List of Polling Stations for  1   GUMMIDIPOONDI   Assembly Segment within the 1   THIRUVALLUR (SC)  Parliamentary Constituency 145","assembly_constituency":"GUMMIDIPOONDI","latitude":13.0,"longitude":80.0,"metadata":{"data_source":"ECI_Official_2024","ac_number":1}},{"station_id":"TN_THI_PS00004","state":"Tamil Nadu","state_code":"TN","district":"Thiruvallur","district_code":"THI","name":"5 List of Polling Stations for  1   GUMMIDIPOONDI   Assembly Segment within the 1   THIRUVALLUR (SC)  Parliamentary Constituency 145 145 Panchayat Union Primary School ,","assembly_constituency":"GUMMIDIPOONDI","latitude":13.0,"longitude":80.0,"metadata":{"data_source":"ECI_Official_2024","ac_number":1}},{"station_id":"TN_THI_PS00145","state":"Tamil Nadu","state_code":"TN","district":"Thiruvallur","district_code":"THI","name":"Panchayat Union Primary School , North Building South Facing Room No--2, New Gummidipoondi-601201","assembly_constituency":"GUMMIDIPOONDI","latitude":13.0945,"longitude":80.2845,"metadata":{"data_source":"ECI_Official_2024","ac_number":1}},{"station_id":"TN_THI_PS00146","state":"Tamil Nadu","state_code":"TN","district":"Thiruvallur","district_code":"THI","name":"Panchayat Union Primary School South Facing (East Side), Karumbukuppam-601201","assembly_constituency":"GUMMIDIPOONDI","latitude":13.0946,"longitude":80.2846,"metadata":{"data_source":"ECI_Official_2024","ac_number":1}},{"station_id":"TN_THI_PS00147","state":"Tamil Nadu","state_code":"TN","district":"Thiruvallur","district_code":"THI","name":"Panchayat Union Primary School South Facing (West Side) , Karumbukuppam-601201","assembly_constituency":"GUMMIDIPOONDI","latitude":13.0947,"longitude":80.2847,"metadata":{"data_source":"ECI_Official_2024","ac_number":1}},{"station_id":"TN_THI_PS00148","state":"Tamil Nadu","state_code":"TN","district":"Thiruvallur","district_code":"THI","name":"Elite World Primary School , South Building North Facing ( Room No.1) , Balakrishnapuram-601201","assembly_constituency":"GUMMIDIPOONDI","latitude":13.0948,"longitude":80.28479999999999,"metadata":{"data_source":"ECI_Official_2024","ac_number":1}},{"station_id":"TN_THI_PS00149","state":"Tamil Nadu","state_code":"TN","district":"Thiruvallur","district_code":"THI","name":"Elite World Primary School , South Building North Facing ( Room No.2) , Balakrishnapuram-601201","assembly_constituency":"GUMMIDIPOONDI","latitude":13.0949,"longitude":80.2849,"metadata":{"data_source":"ECI_Official_2024","ac_number":1}},{"station_id":"TN_THI_PS00150","state":"Tamil Nadu","state_code":"TN","district":"Thiruvallur","district_code":"THI","name":"Elite World Primary School,South Building North Facing (Room No.4) Balakrishnapuram, Paleeswarankandigai -601201","assembly_constituency":"GUMMIDIPOONDI","latitude":13.095,"longitude":80.285,"metadata":{"data_source":"ECI_Official_2024","ac_number":1}},{"station_id":"TN_THI_PS00151","state":"Tamil Nadu","state_code":"TN","district":"Thiruvallur","district_code":"THI","name":"Elite World Primary School , South Building North Facing ( Room No.3) , Balakrishnapuram-601201","assembly_constituency":"GUMMIDIPOONDI","latitude":13.0951,"longitude":80.2851,"metadata":{"data_source":"ECI_Official_2024","ac_number":1}},{"station_id":"TN_THI_PS00152","state":"Tamil Nadu","state_code":"TN","district":"Thiruvallur","district_code":"THI","name":"Panchayat Union Middle School, East Building West Facing, Panpakkam-601201","assembly_constituency":"GUMMIDIPOONDI","latitude":13.0952,"longitude":80.28519999999999,"metadata":{"data_source":"ECI_Official_2024","ac_number":1}},{"station_id":"TN_THI_PS00002","state":"Tamil Nadu","state_code":"TN","district":"Thiruvallur","district_code":"THI","name":"3 4 5 List of Polling Stations for  1   GUMMIDIPOONDI   Assembly Segment within the 1   THIRUVALLUR (SC)  Parliamentary Constituency 153","assembly_constituency":"GUMMIDIPOONDI","latitude":13.0,"longitude":80.0,"metadata":{"data_source":"ECI_Official_2024","ac_number":1}},{"station_id":"TN_THI_PS00004","state":"Tamil Nadu","state_code":"TN","district":"Thiruvallur","district_code":"THI","name":"5 List of Polling Stations for  1   GUMMIDIPOONDI   Assembly Segment within the 1   THIRUVALLUR (SC)  Parliamentary Constituency 153 153 Panchayat Union Middle","assembly_constituency":"GUMMIDIPOONDI","latitude":13.0,"longitude":80.0,"metadata":{"data_source":"ECI_Official_2024","ac_number":1}},{"station_id":"TN_THI_PS00153","state":"Tamil Nadu","state_code":"TN","district":"Thiruvallur","district_code":"THI","name":"Panchayat Union Middle School,North Building South Facing, Panpakkam-601201","assembly_constituency":"GUMMIDIPOONDI","latitude":13.0953,"longitude":80.28529999999999,"metadata":{"data_source":"ECI_Official_2024","ac_number":1}},{"station_id":"TN_THI_PS00154","state":"Tamil Nadu","state_code":"TN","district":"Thiruvallur","district_code":"THI","name":"Panchayat Union Middle School , South Building North Facing, Thandalachery-601201","assembly_constituency":"GUMMIDIPOONDI","latitude":13.0954,"longitude":80.2854,"metadata":{"data_source":"ECI_Official_2024","ac_number":1}},{"station_id":"TN_THI_PS00155","state":"Tamil Nadu","state_code":"TN","district":"Thiruvallur","district_code":"THI","name":"Panchayat Union Middle School, North Building East Facing, Thandalachery-601201","assembly_constituency":"GUMMIDIPOONDI","latitude":13.0955,"longitude":80.2855,"metadata":{"data_source":"ECI_Official_2024","ac_number":1}},{"station_id":"TN_THI_PS00156","state":"Tamil Nadu","state_code":"TN","district":"Thiruvallur","district_code":"THI","name":"Panchayat Union Primary School, East Building West Facing, Getnamallee-601201","assembly_constituency":"GUMMIDIPOONDI","latitude":13.0956,"longitude":80.2856,"metadata":{"data_source":"ECI_Official_2024","ac_number":1}},{"station_id":"TN_THI_PS00157","state":"Tamil Nadu","state_code":"TN","district":"Thiruvallur","district_code":"THI","name":"Panchayat Union Primary School, East Building, West Facing, North Side Room, Getnamallee-601201","assembly_constituency":"GUMMIDIPOONDI","latitude":13.0957,"longitude":80.28569999999999,"metadata":{"data_source":"ECI_Official_2024","ac_number":1}},{"station_id":"TN_THI_PS00158","state":"Tamil Nadu","state_code":"TN","district":"Thiruvallur","district_code":"THI","name":"Panchayat Union Primary School, S S A Building, South Building North Facing, Periyapuliyur-601206","assembly_constituency":"GUMMIDIPOONDI","latitude":13.0958,"longitude":80.2858,"metadata":{"data_source":"ECI_Official_2024","ac_number":1}},{"station_id":"TN_THI_PS00159","state":"Tamil Nadu","state_code":"TN","district":"Thiruvallur","district_code":"THI","name":"Panchayat Union Primary School , North Building South Facing, Kollanur-601206","assembly_constituency":"GUMMIDIPOONDI","latitude":13.0959,"longitude":80.2859,"metadata":{"data_source":"ECI_Official_2024","ac_number":1}},{"station_id":"TN_THI_PS00160","state":"Tamil Nadu","state_code":"TN","district":"Thiruvallur","district_code":"THI","name":"Community Hall,North Side Building South Facing Amarambedu","assembly_constituency":"GUMMIDIPOONDI","latitude":13.096,"longitude":80.286,"metadata":{"data_source":"ECI_Official_2024","ac_number":1}},{"station_id":"TN_THI_PS00161","state":"Tamil Nadu","state_code":"TN","district":"Thiruvallur","district_code":"THI","name":"Government Higher Secondary School West Buliding East Facing, Atchamanaidu Kandigai Kannan Kottai -601202","assembly_constituency":"GUMMIDIPOONDI","latitude":13.0961,"longitude":80.28609999999999,"metadata":{"data_source":"ECI_Official_2024","ac_number":1}},{"station_id":"TN_THI_PS00002","state":"Tamil Nadu","state_code":"TN","district":"Thiruvallur","district_code":"THI","name":"3 4 5 List of Polling Stations for  1   GUMMIDIPOONDI   Assembly Segment within the 1   THIRUVALLUR (SC)  Parliamentary Constituency 162","assembly_constituency":"GUMMIDIPOONDI","latitude":13.0,"longitude":80.0,"metadata":{"data_source":"ECI_Official_2024","ac_number":1}},{"station_id":"TN_THI_PS00004","state":"Tamil Nadu","state_code":"TN","district":"Thiruvallur","district_code":"THI","name":"5 List of Polling Stations for  1   GUMMIDIPOONDI   Assembly Segment within the 1   THIRUVALLUR (SC)  Parliamentary Constituency 162 162 Government Higher Secondary","assembly_constituency":"GUMMIDIPOONDI","latitude":13.0,"longitude":80.0,"metadata":{"data_source":"ECI_Official_2024","ac_number":1}},{"station_id":"TN_THI_PS00162","state":"Tamil Nadu","state_code":"TN","district":"Thiruvallur","district_code":"THI","name":"Government Higher Secondary School North Building South Facing, Atchamanaidu Kandigai Kannan Kottai -601202","assembly_constituency":"GUMMIDIPOONDI","latitude":13.0962,"longitude":80.2862,"metadata":{"data_source":"ECI_Official_2024","ac_number":1}},{"station_id":"TN_THI_PS00163","state":"Tamil Nadu","state_code":"TN","district":"Thiruvallur","district_code":"THI","name":"Adi Dravidar Welfare School , East Building West Facing , Siruvada - 601202","assembly_constituency":"GUMMIDIPOONDI","latitude":13.0963,"longitude":80.2863,"metadata":{"data_source":"ECI_Official_2024","ac_number":1}},{"station_id":"TN_THI_PS00164","state":"Tamil Nadu","state_code":"TN","district":"Thiruvallur","district_code":"THI","name":"Panchayat Union Primary School, South Building North Facing, Nellimarathukandigai -601202","assembly_constituency":"GUMMIDIPOONDI","latitude":13.096400000000001,"longitude":80.2864,"metadata":{"data_source":"ECI_Official_2024","ac_number":1}},{"station_id":"TN_THI_PS00165","state":"Tamil Nadu","state_code":"TN","district":"Thiruvallur","district_code":"THI","name":"Panchayat Union Primary School West Faching S S A Buliding East Building West Facing, Budur - 601202","assembly_constituency":"GUMMIDIPOONDI","latitude":13.0965,"longitude":80.28649999999999,"metadata":{"data_source":"ECI_Official_2024","ac_number":1}},{"station_id":"TN_THI_PS00166","state":"Tamil Nadu","state_code":"TN","district":"Thiruvallur","district_code":"THI","name":"C S I Primary School,North Side South Facing, Karadiputhur -601202","assembly_constituency":"GUMMIDIPOONDI","latitude":13.0966,"longitude":80.28659999999999,"metadata":{"data_source":"ECI_Official_2024","ac_number":1}},{"station_id":"TN_THI_PS00167","state":"Tamil Nadu","state_code":"TN","district":"Thiruvallur","district_code":"THI","name":"P U Middle School S S A Buliding, North Side South Facing, Gopal Reddy Kandigai -601202","assembly_constituency":"GUMMIDIPOONDI","latitude":13.0967,"longitude":80.2867,"metadata":{"data_source":"ECI_Official_2024","ac_number":1}},{"station_id":"TN_THI_PS00168","state":"Tamil Nadu","state_code":"TN","district":"Thiruvallur","district_code":"THI","name":"Government Adi dravida Welfare High School,West Building East Facing, Thervoy Kandigai -601202","assembly_constituency":"GUMMIDIPOONDI","latitude":13.0968,"longitude":80.2868,"metadata":{"data_source":"ECI_Official_2024","ac_number":1}},{"station_id":"TN_THI_PS00169","state":"Tamil Nadu","state_code":"TN","district":"Thiruvallur","district_code":"THI","name":"Government Adi Dravida Welfare Higher Secondary School J.S.Y. Building West Building East Facing, Thervoy kandigai -601202","assembly_constituency":"GUMMIDIPOONDI","latitude":13.0969,"longitude":80.2869,"metadata":{"data_source":"ECI_Official_2024","ac_number":1}},{"station_id":"TN_THI_PS00002","state":"Tamil Nadu","state_code":"TN","district":"Thiruvallur","district_code":"THI","name":"3 4 5 List of Polling Stations for  1   GUMMIDIPOONDI   Assembly Segment within the 1   THIRUVALLUR (SC)  Parliamentary Constituency 170","assembly_constituency":"GUMMIDIPOONDI","latitude":13.0,"longitude":80.0,"metadata":{"data_source":"ECI_Official_2024","ac_number":1}},{"station_id":"TN_THI_PS00004","state":"Tamil Nadu","state_code":"TN","district":"Thiruvallur","district_code":"THI","name":"5 List of Polling Stations for  1   GUMMIDIPOONDI   Assembly Segment within the 1   THIRUVALLUR (SC)  Parliamentary Constituency 170 170 Government Adi dravida Welfare","assembly_constituency":"GUMMIDIPOONDI","latitude":13.0,"longitude":80.0,"metadata":{"data_source":"ECI_Official_2024","ac_number":1}},{"station_id":"TN_THI_PS00170","state":"Tamil Nadu","state_code":"TN","district":"Thiruvallur","district_code":"THI","name":"Government Adi dravida Welfare Higher Secondary School J.S.Y. Building South Facing, Thervoy kandigai -601202","assembly_constituency":"GUMMIDIPOONDI","latitude":13.097,"longitude":80.28699999999999,"metadata":{"data_source":"ECI_Official_2024","ac_number":1}},{"station_id":"TN_THI_PS00171","state":"Tamil Nadu","state_code":"TN","district":"Thiruvallur","district_code":"THI","name":"Panchayat Union Primary School,East Building West Facing Room No-1, Mukarampakkam - 601102","assembly_constituency":"GUMMIDIPOONDI","latitude":13.0971,"longitude":80.2871,"metadata":{"data_source":"ECI_Official_2024","ac_number":1}},{"station_id":"TN_THI_PS00172","state":"Tamil Nadu","state_code":"TN","district":"Thiruvallur","district_code":"THI","name":"Panchayat Union Primary School,East Building West Facing Room No-2, Mukarampakkam - 601102","assembly_constituency":"GUMMIDIPOONDI","latitude":13.0972,"longitude":80.2872,"metadata":{"data_source":"ECI_Official_2024","ac_number":1}},{"station_id":"TN_THI_PS00173","state":"Tamil Nadu","state_code":"TN","district":"Thiruvallur","district_code":"THI","name":"Panchayat Union Middle School,East Building West Facing, Annavaram - 601102","assembly_constituency":"GUMMIDIPOONDI","latitude":13.0973,"longitude":80.2873,"metadata":{"data_source":"ECI_Official_2024","ac_number":1}},{"station_id":"TN_THI_PS00174","state":"Tamil Nadu","state_code":"TN","district":"Thiruvallur","district_code":"THI","name":"Panchayat Union Middle School ,South Building North Facing, Nelvoy -601102","assembly_constituency":"GUMMIDIPOONDI","latitude":13.0974,"longitude":80.28739999999999,"metadata":{"data_source":"ECI_Official_2024","ac_number":1}},{"station_id":"TN_THI_PS00175","state":"Tamil Nadu","state_code":"TN","district":"Thiruvallur","district_code":"THI","name":"Panchayat Union Middle School ,West Building East Faicng , Nelvoy - 601102","assembly_constituency":"GUMMIDIPOONDI","latitude":13.0975,"longitude":80.2875,"metadata":{"data_source":"ECI_Official_2024","ac_number":1}},{"station_id":"TN_THI_PS00176","state":"Tamil Nadu","state_code":"TN","district":"Thiruvallur","district_code":"THI","name":"Panchayat Union Primary School ,South Building North Facing, Karani -601101","assembly_constituency":"GUMMIDIPOONDI","latitude":13.0976,"longitude":80.2876,"metadata":{"data_source":"ECI_Official_2024","ac_number":1}},{"station_id":"TN_THI_PS00177","state":"Tamil Nadu","state_code":"TN","district":"Thiruvallur","district_code":"THI","name":"Panchayat Union Primary School, South Building, North Facing, West side Room, Mangalam Village","assembly_constituency":"GUMMIDIPOONDI","latitude":13.0977,"longitude":80.2877,"metadata":{"data_source":"ECI_Official_2024","ac_number":1}},{"station_id":"TN_THI_PS00002","state":"Tamil Nadu","state_code":"TN","district":"Thiruvallur","district_code":"THI","name":"3 4 5 List of Polling Stations for  1   GUMMIDIPOONDI   Assembly Segment within the 1   THIRUVALLUR (SC)  Parliamentary Constituency 178","assembly_constituency":"GUMMIDIPOONDI","latitude":13.0,"longitude":80.0,"metadata":{"data_source":"ECI_Official_2024","ac_number":1}},{"station_id":"TN_THI_PS00004","state":"Tamil Nadu","state_code":"TN","district":"Thiruvallur","district_code":"THI","name":"5 List of Polling Stations for  1   GUMMIDIPOONDI   Assembly Segment within the 1   THIRUVALLUR (SC)  Parliamentary Constituency 178 178 Panchayat Union Middle School,West","assembly_constituency":"GUMMIDIPOONDI","latitude":13.0,"longitude":80.0,"metadata":{"data_source":"ECI_Official_2024","ac_number":1}},{"station_id":"TN_THI_PS00178","state":"Tamil Nadu","state_code":"TN","district":"Thiruvallur","district_code":"THI","name":"Panchayat Union Middle School,West Building East Facing, Erukuvoy- 601101","assembly_constituency":"GUMMIDIPOONDI","latitude":13.0978,"longitude":80.28779999999999,"metadata":{"data_source":"ECI_Official_2024","ac_number":1}},{"station_id":"TN_THI_PS00179","state":"Tamil Nadu","state_code":"TN","district":"Thiruvallur","district_code":"THI","name":"Panchayat Union Middle School, South Building, North Facing,East Side,Room No.3,Erukuvoy-601101","assembly_constituency":"GUMMIDIPOONDI","latitude":13.0979,"longitude":80.2879,"metadata":{"data_source":"ECI_Official_2024","ac_number":1}},{"station_id":"TN_THI_PS00180","state":"Tamil Nadu","state_code":"TN","district":"Thiruvallur","district_code":"THI","name":"Panchayat Union Primary School,North Building South West Facing, Palavakkam-601101","assembly_constituency":"GUMMIDIPOONDI","latitude":13.098,"longitude":80.288,"metadata":{"data_source":"ECI_Official_2024","ac_number":1}},{"station_id":"TN_THI_PS00181","state":"Tamil Nadu","state_code":"TN","district":"Thiruvallur","district_code":"THI","name":"Panchayat Union Primary School,North Building South West Facing, Kanlur-601101","assembly_constituency":"GUMMIDIPOONDI","latitude":13.0981,"longitude":80.2881,"metadata":{"data_source":"ECI_Official_2024","ac_number":1}},{"station_id":"TN_THI_PS00182","state":"Tamil Nadu","state_code":"TN","district":"Thiruvallur","district_code":"THI","name":"Panchayat Union Primary School (SSA Building) South Building North Facing , Annappanayakkan Kuppam- 601101","assembly_constituency":"GUMMIDIPOONDI","latitude":13.0982,"longitude":80.28819999999999,"metadata":{"data_source":"ECI_Official_2024","ac_number":1}},{"station_id":"TN_THI_PS00183","state":"Tamil Nadu","state_code":"TN","district":"Thiruvallur","district_code":"THI","name":"Panchayat Union Primary School - West Building Side East Facing , RamaNayakkan Kuppam-601101","assembly_constituency":"GUMMIDIPOONDI","latitude":13.0983,"longitude":80.28829999999999,"metadata":{"data_source":"ECI_Official_2024","ac_number":1}},{"station_id":"TN_THI_PS00184","state":"Tamil Nadu","state_code":"TN","district":"Thiruvallur","district_code":"THI","name":"Village Panchayat Service Centre East Building West Facing , Melmudalambedu -601206","assembly_constituency":"GUMMIDIPOONDI","latitude":13.0984,"longitude":80.2884,"metadata":{"data_source":"ECI_Official_2024","ac_number":1}},{"station_id":"TN_THI_PS00185","state":"Tamil Nadu","state_code":"TN","district":"Thiruvallur","district_code":"THI","name":"Village Panchayat Service Centre East Building West Facing , Melmudalambedu-601206","assembly_constituency":"GUMMIDIPOONDI","latitude":13.0985,"longitude":80.2885,"metadata":{"data_source":"ECI_Official_2024","ac_number":1}},{"station_id":"TN_THI_PS00186","state":"Tamil Nadu","state_code":"TN","district":"Thiruvallur","district_code":"THI","name":"Panchayat Union Primary School,North Building South West Facing, Keelmudalambedu-601206","assembly_constituency":"GUMMIDIPOONDI","latitude":13.0986,"longitude":80.2886,"metadata":{"data_source":"ECI_Official_2024","ac_number":1}},{"station_id":"TN_THI_PS00002","state":"Tamil Nadu","state_code":"TN","district":"Thiruvallur","district_code":"THI","name":"3 4 5 List of Polling Stations for  1   GUMMIDIPOONDI   Assembly Segment within the 1   THIRUVALLUR (SC)  Parliamentary Constituency 187","assembly_constituency":"GUMMIDIPOONDI","latitude":13.0,"longitude":80.0,"metadata":{"data_source":"ECI_Official_2024","ac_number":1}},{"station_id":"TN_THI_PS00004","state":"Tamil Nadu","state_code":"TN","district":"Thiruvallur","district_code":"THI","name":"5 List of Polling Stations for  1   GUMMIDIPOONDI   Assembly Segment within the 1   THIRUVALLUR (SC)  Parliamentary Constituency 187 187 Panchayat Union Primary","assembly_constituency":"GUMMIDIPOONDI","latitude":13.0,"longitude":80.0,"metadata":{"data_source":"ECI_Official_2024","ac_number":1}},{"station_id":"TN_THI_PS00187","state":"Tamil Nadu","state_code":"TN","district":"Thiruvallur","district_code":"THI","name":"Panchayat Union Primary School,North Building South West Facing, Keelmudalambedu-601206","assembly_constituency":"GUMMIDIPOONDI","latitude":13.0986,"longitude":80.2886,"metadata":{"data_source":"ECI_Official_2024","ac_number":1}},{"station_id":"TN_THI_PS00188","state":"Tamil Nadu","state_code":"TN","district":"Thiruvallur","district_code":"THI","name":"Government Higher Secondary School South Building North Facing, Kavaraipettai-601206","assembly_constituency":"GUMMIDIPOONDI","latitude":13.0988,"longitude":80.2888,"metadata":{"data_source":"ECI_Official_2024","ac_number":1}},{"station_id":"TN_THI_PS00189","state":"Tamil Nadu","state_code":"TN","district":"Thiruvallur","district_code":"THI","name":"Government Higher Secondary School ( Room No.16.) South Building North Facing, Kavaraipettai- 601206","assembly_constituency":"GUMMIDIPOONDI","latitude":13.0989,"longitude":80.2889,"metadata":{"data_source":"ECI_Official_2024","ac_number":1}},{"station_id":"TN_THI_PS00190","state":"Tamil Nadu","state_code":"TN","district":"Thiruvallur","district_code":"THI","name":"Government Higher Secondary School ( Room.No.6) West Building East Facing, Kavaraipettai-601206","assembly_constituency":"GUMMIDIPOONDI","latitude":13.099,"longitude":80.289,"metadata":{"data_source":"ECI_Official_2024","ac_number":1}},{"station_id":"TN_THI_PS00191","state":"Tamil Nadu","state_code":"TN","district":"Thiruvallur","district_code":"THI","name":"Government Higher Secondary School ( Room.No.6) West Building East Facing, Kavaraipettai-601206","assembly_constituency":"GUMMIDIPOONDI","latitude":13.099,"longitude":80.289,"metadata":{"data_source":"ECI_Official_2024","ac_number":1}},{"station_id":"TN_THI_PS00192","state":"Tamil Nadu","state_code":"TN","district":"Thiruvallur","district_code":"THI","name":"Panchayat Union Primary School North Building South Facing Room No-1, Peruvoyal-601206","assembly_constituency":"GUMMIDIPOONDI","latitude":13.0992,"longitude":80.2892,"metadata":{"data_source":"ECI_Official_2024","ac_number":1}},{"station_id":"TN_THI_PS00193","state":"Tamil Nadu","state_code":"TN","district":"Thiruvallur","district_code":"THI","name":"Panchayat Union Primary School North Building South Facing Room No-2, Peruvoyal-601206","assembly_constituency":"GUMMIDIPOONDI","latitude":13.0993,"longitude":80.2893,"metadata":{"data_source":"ECI_Official_2024","ac_number":1}},{"station_id":"TN_THI_PS00194","state":"Tamil Nadu","state_code":"TN","district":"Thiruvallur","district_code":"THI","name":"Panchayat Union Middle School, South Side North Facing, Puduvoyal- 601206","assembly_constituency":"GUMMIDIPOONDI","latitude":13.0994,"longitude":80.2894,"metadata":{"data_source":"ECI_Official_2024","ac_number":1}},{"station_id":"TN_THI_PS00195","state":"Tamil Nadu","state_code":"TN","district":"Thiruvallur","district_code":"THI","name":"Panchayat Union Middle School , South Building North Facing, Puduvoyal-601206","assembly_constituency":"GUMMIDIPOONDI","latitude":13.0995,"longitude":80.28949999999999,"metadata":{"data_source":"ECI_Official_2024","ac_number":1}},{"station_id":"TN_THI_PS00002","state":"Tamil Nadu","state_code":"TN","district":"Thiruvallur","district_code":"THI","name":"3 4 5 List of Polling Stations for  1   GUMMIDIPOONDI   Assembly Segment within the 1   THIRUVALLUR (SC)  Parliamentary Constituency 196","assembly_constituency":"GUMMIDIPOONDI","latitude":13.0,"longitude":80.0,"metadata":{"data_source":"ECI_Official_2024","ac_number":1}},{"station_id":"TN_THI_PS00004","state":"Tamil Nadu","state_code":"TN","district":"Thiruvallur","district_code":"THI","name":"5 List of Polling Stations for  1   GUMMIDIPOONDI   Assembly Segment within the 1   THIRUVALLUR (SC)  Parliamentary Constituency 196 196 Government (Boys) Higher Secondary","assembly_constituency":"GUMMIDIPOONDI","latitude":13.0,"longitude":80.0,"metadata":{"data_source":"ECI_Official_2024","ac_number":1}},{"station_id":"TN_THI_PS00196","state":"Tamil Nadu","state_code":"TN","district":"Thiruvallur","district_code":"THI","name":"Government (Boys) Higher Secondary School ,West Side Esat Facing , Uthukottai -602026","assembly_constituency":"GUMMIDIPOONDI","latitude":13.0996,"longitude":80.2896,"metadata":{"data_source":"ECI_Official_2024","ac_number":1}},{"station_id":"TN_THI_PS00197","state":"Tamil Nadu","state_code":"TN","district":"Thiruvallur","district_code":"THI","name":"Governement (Boys) .Higher Secondary School ,West Side Esat Facing i, Uthukottai-602026","assembly_constituency":"GUMMIDIPOONDI","latitude":13.0997,"longitude":80.2897,"metadata":{"data_source":"ECI_Official_2024","ac_number":1}},{"station_id":"TN_THI_PS00198","state":"Tamil Nadu","state_code":"TN","district":"Thiruvallur","district_code":"THI","name":"Government Higher Secondary School (Girls) East Side South Facing , Uthukottai-602026","assembly_constituency":"GUMMIDIPOONDI","latitude":13.0998,"longitude":80.2898,"metadata":{"data_source":"ECI_Official_2024","ac_number":1}},{"station_id":"TN_THI_PS00199","state":"Tamil Nadu","state_code":"TN","district":"Thiruvallur","district_code":"THI","name":"Governemnt Girls Higher Secondary School, ,South Side North Facing, Uthukottai-602026","assembly_constituency":"GUMMIDIPOONDI","latitude":13.0999,"longitude":80.2899,"metadata":{"data_source":"ECI_Official_2024","ac_number":1}},{"station_id":"TN_THI_PS00200","state":"Tamil Nadu","state_code":"TN","district":"Thiruvallur","district_code":"THI","name":"Governemnt Girls Higher Secondary School North Side North Facing, Uthukottai-602026","assembly_constituency":"GUMMIDIPOONDI","latitude":13.1,"longitude":80.28999999999999,"metadata":{"data_source":"ECI_Official_2024","ac_number":1}},{"station_id":"TN_THI_PS00201","state":"Tamil Nadu","state_code":"TN","district":"Thiruvallur","district_code":"THI","name":"PanchayatUnion Primary School, Eastern Facing, Old Building, , Uthukottai-602026","assembly_constituency":"GUMMIDIPOONDI","latitude":13.1001,"longitude":80.2901,"metadata":{"data_source":"ECI_Official_2024","ac_number":1}},{"station_id":"TN_THI_PS00202","state":"Tamil Nadu","state_code":"TN","district":"Thiruvallur","district_code":"THI","name":"Panchayat Union Primary School, New Building (Eastern Side, West Facing), Uthukottai-602026","assembly_constituency":"GUMMIDIPOONDI","latitude":13.100200000000001,"longitude":80.2902,"metadata":{"data_source":"ECI_Official_2024","ac_number":1}},{"station_id":"TN_THI_PS00203","state":"Tamil Nadu","state_code":"TN","district":"Thiruvallur","district_code":"THI","name":"Panchayat Union Primary School, New Building (Eastern Side, West Facing), Dr.Ambedkar Nagar Uthukottai -602026","assembly_constituency":"GUMMIDIPOONDI","latitude":13.1003,"longitude":80.2903,"metadata":{"data_source":"ECI_Official_2024","ac_number":1}},{"station_id":"TN_THI_PS00204","state":"Tamil Nadu","state_code":"TN","district":"Thiruvallur","district_code":"THI","name":"Kothandaraman High School, North Side Building South Facing, Uthukottai-602026","assembly_constituency":"GUMMIDIPOONDI","latitude":13.1004,"longitude":80.29039999999999,"metadata":{"data_source":"ECI_Official_2024","ac_number":1}},{"station_id":"TN_THI_PS00002","state":"Tamil Nadu","state_code":"TN","district":"Thiruvallur","district_code":"THI","name":"3 4 5 List of Polling Stations for  1   GUMMIDIPOONDI   Assembly Segment within the 1   THIRUVALLUR (SC)  Parliamentary Constituency 205","assembly_constituency":"GUMMIDIPOONDI","latitude":13.0,"longitude":80.0,"metadata":{"data_source":"ECI_Official_2024","ac_number":1}},{"station_id":"TN_THI_PS00004","state":"Tamil Nadu","state_code":"TN","district":"Thiruvallur","district_code":"THI","name":"5 List of Polling Stations for  1   GUMMIDIPOONDI   Assembly Segment within the 1   THIRUVALLUR (SC)  Parliamentary Constituency 205 205 Kothandaraman High School, North","assembly_constituency":"GUMMIDIPOONDI","latitude":13.0,"longitude":80.0,"metadata":{"data_source":"ECI_Official_2024","ac_number":1}},{"station_id":"TN_THI_PS00205","state":"Tamil Nadu","state_code":"TN","district":"Thiruvallur","district_code":"THI","name":"Kothandaraman High School, North Side Building South Facing , Uthukottai-602026","assembly_constituency":"GUMMIDIPOONDI","latitude":13.1005,"longitude":80.2905,"metadata":{"data_source":"ECI_Official_2024","ac_number":1}},{"station_id":"TN_THI_PS00206","state":"Tamil Nadu","state_code":"TN","district":"Thiruvallur","district_code":"THI","name":"Panchayat Union Primary School, New Building, West Side, South Facing,, Dombarambedu-602026","assembly_constituency":"GUMMIDIPOONDI","latitude":13.1006,"longitude":80.2906,"metadata":{"data_source":"ECI_Official_2024","ac_number":1}},{"station_id":"TN_THI_PS00207","state":"Tamil Nadu","state_code":"TN","district":"Thiruvallur","district_code":"THI","name":"Panchayat Union Primary School,North Side, South Facing, , Thamaraikuppam-602026","assembly_constituency":"GUMMIDIPOONDI","latitude":13.1007,"longitude":80.2907,"metadata":{"data_source":"ECI_Official_2024","ac_number":1}},{"station_id":"TN_THI_PS00208","state":"Tamil Nadu","state_code":"TN","district":"Thiruvallur","district_code":"THI","name":"Panchayat Union Middle School, North Side Building South Facing , Tharatchi-602026","assembly_constituency":"GUMMIDIPOONDI","latitude":13.1008,"longitude":80.29079999999999,"metadata":{"data_source":"ECI_Official_2024","ac_number":1}},{"station_id":"TN_THI_PS00209","state":"Tamil Nadu","state_code":"TN","district":"Thiruvallur","district_code":"THI","name":"Panchayat Union Middle School, South Facing Old Building, Tharatchi-602026","assembly_constituency":"GUMMIDIPOONDI","latitude":13.1009,"longitude":80.2909,"metadata":{"data_source":"ECI_Official_2024","ac_number":1}},{"station_id":"TN_THI_PS00210","state":"Tamil Nadu","state_code":"TN","district":"Thiruvallur","district_code":"THI","name":"Panchayat Union Primary School, (Left Side), South Facing , Senjiagaram-602026","assembly_constituency":"GUMMIDIPOONDI","latitude":13.101,"longitude":80.291,"metadata":{"data_source":"ECI_Official_2024","ac_number":1}},{"station_id":"TN_THI_PS00211","state":"Tamil Nadu","state_code":"TN","district":"Thiruvallur","district_code":"THI","name":"Panchayat Union Middle School, Right Side, East Facing, NorthWing,, Perandur-602026","assembly_constituency":"GUMMIDIPOONDI","latitude":13.1011,"longitude":80.2911,"metadata":{"data_source":"ECI_Official_2024","ac_number":1}},{"station_id":"TN_THI_PS00212","state":"Tamil Nadu","state_code":"TN","district":"Thiruvallur","district_code":"THI","name":"Panchayat Union Middle School, North Side New Building, South Facing 2nd Room, Perandur-602026","assembly_constituency":"GUMMIDIPOONDI","latitude":13.1012,"longitude":80.29119999999999,"metadata":{"data_source":"ECI_Official_2024","ac_number":1}},{"station_id":"TN_THI_PS00002","state":"Tamil Nadu","state_code":"TN","district":"Thiruvallur","district_code":"THI","name":"3 4 5 List of Polling Stations for  1   GUMMIDIPOONDI   Assembly Segment within the 1   THIRUVALLUR (SC)  Parliamentary Constituency 213","assembly_constituency":"GUMMIDIPOONDI","latitude":13.0,"longitude":80.0,"metadata":{"data_source":"ECI_Official_2024","ac_number":1}},{"station_id":"TN_THI_PS00004","state":"Tamil Nadu","state_code":"TN","district":"Thiruvallur","district_code":"THI","name":"5 List of Polling Stations for  1   GUMMIDIPOONDI   Assembly Segment within the 1   THIRUVALLUR (SC)  Parliamentary Constituency 213 213 Government High School, New","assembly_constituency":"GUMMIDIPOONDI","latitude":13.0,"longitude":80.0,"metadata":{"data_source":"ECI_Official_2024","ac_number":1}},{"station_id":"TN_THI_PS00213","state":"Tamil Nadu","state_code":"TN","district":"Thiruvallur","district_code":"THI","name":"Government High School, New Building, East Side, West Facing, Room No-1, Palavakkam-602028","assembly_constituency":"GUMMIDIPOONDI","latitude":13.1013,"longitude":80.29129999999999,"metadata":{"data_source":"ECI_Official_2024","ac_number":1}},{"station_id":"TN_THI_PS00214","state":"Tamil Nadu","state_code":"TN","district":"Thiruvallur","district_code":"THI","name":"Government High School, New Building, East Side, West Facing, Room No-2, Palavakkam-602028","assembly_constituency":"GUMMIDIPOONDI","latitude":13.1014,"longitude":80.2914,"metadata":{"data_source":"ECI_Official_2024","ac_number":1}},{"station_id":"TN_THI_PS00215","state":"Tamil Nadu","state_code":"TN","district":"Thiruvallur","district_code":"THI","name":"Government High School, Center Building, East Side, West Facing, , Palavakkam-602028","assembly_constituency":"GUMMIDIPOONDI","latitude":13.1015,"longitude":80.2915,"metadata":{"data_source":"ECI_Official_2024","ac_number":1}},{"station_id":"TN_THI_PS00216","state":"Tamil Nadu","state_code":"TN","district":"Thiruvallur","district_code":"THI","name":"Panchayat Union Primary School, North West Facing,Room No.1, Latchivakkam-602028","assembly_constituency":"GUMMIDIPOONDI","latitude":13.1016,"longitude":80.2916,"metadata":{"data_source":"ECI_Official_2024","ac_number":1}},{"station_id":"TN_THI_PS00217","state":"Tamil Nadu","state_code":"TN","district":"Thiruvallur","district_code":"THI","name":"Panchayat Union Primary School, ,North West Facing,Room No.2, Latchivakkam-602028","assembly_constituency":"GUMMIDIPOONDI","latitude":13.1017,"longitude":80.29169999999999,"metadata":{"data_source":"ECI_Official_2024","ac_number":1}},{"station_id":"TN_THI_PS00218","state":"Tamil Nadu","state_code":"TN","district":"Thiruvallur","district_code":"THI","name":"Panchayat Union Primary School, Western Side, South Facing, , Sengarai -602026","assembly_constituency":"GUMMIDIPOONDI","latitude":13.1018,"longitude":80.2918,"metadata":{"data_source":"ECI_Official_2024","ac_number":1}},