polling_stations:
- station_id: TN_CHENNAI_001
  name: Sir. Thiyagaraya College (North Block 1st Room)
  address: No.1047, Thiruvotriur High Road, Chennai - 600021
  state: Tamil Nadu
  district: Chennai
  assembly_constituency: Royapuram
  latitude: 13.1145
  longitude: 80.2921
  accessibility:
    wheelchair_ramp: 'yes'
    accessibility_rating: 4.5
    audio_booth: true
    braille_materials: true
  metadata:
    data_source: CEO_TamilNadu
    last_verified: '2024-03-27'
    confidence_score: 0.95
  election_details: {}
  contact: {}
  community_data: {}
- station_id: TN_CHENNAI_002
  name: Sir. Thiyagaraya College (North Block 2nd Room)
  address: No.1047, Thiruvotriur High Road, Chennai - 600021
  state: Tamil Nadu
  district: Chennai
  assembly_constituency: Royapuram
  latitude: 13.1146
  longitude: 80.2922
  accessibility:
    wheelchair_ramp: 'yes'
    accessibility_rating: 4.2
    audio_booth: false
    braille_materials: true
  election_details: {}
  contact: {}
  community_data: {}
  metadata: {}
- station_id: TN_CHENNAI_010
  name: Sir. Thiyagaraya Primary School
  address: No.23, Basuvaian Street, Chennai - 600021
  state: Tamil Nadu
  district: Chennai
  assembly_constituency: Royapuram
  latitude: 13.1155
  longitude: 80.2911
  accessibility:
    wheelchair_ramp: 'yes'
    accessibility_rating: 4.3
    audio_booth: true
    braille_materials: false
  election_details: {}
  contact: {}
  community_data: {}
  metadata: {}
- station_id: KL_TVM_001
  name: Govt. UPS Kudappanakunnu (Northern Portion)
  address: Kudappanakunnu, Trivandrum, Kerala
  state: Kerala
  district: Thiruvananthapuram
  assembly_constituency: Vattiyoorkavu
  latitude: 8.5421
  longitude: 76.9632
  accessibility:
    wheelchair_ramp: 'yes'
    accessibility_rating: 4.4
    audio_booth: true
    braille_materials: true
  election_details: {}
  contact: {}
  community_data: {}
  metadata: {}
- station_id: KL_TVM_004
  name: Govt. UPS Kusavarkkal (West Building)
  address: Kudappanakunnu, Trivandrum, Kerala
  state: Kerala
  district: Thiruvananthapuram
  assembly_constituency: Vattiyoorkavu
  latitude: 8.5455
  longitude: 76.9688
  accessibility:
    wheelchair_ramp: 'no'
    accessibility_rating: 2.1
    audio_booth: false
    braille_materials: false
  election_details: {}
  contact: {}
  community_data: {}
  metadata: {}
- station_id: KL_TVM_007
  name: St. Goraithy’s HSS, Nalanchira
  address: Nalanchira, Trivandrum, Kerala
  state: Kerala
  district: Thiruvananthapuram
  assembly_constituency: Vattiyoorkavu
  latitude: 8.5512
  longitude: 76.9421
  accessibility:
    wheelchair_ramp: 'yes'
    accessibility_rating: 3.8
    audio_booth: false
    braille_materials: true
  election_details: {}
  contact: {}
  community_data: {}
  metadata: {}
- station_id: PY_PDY_001
  name: Govt. Primary School, Vennila Nagar
  address: Middle Street, Vennila Nagar, Puducherry-605013
  state: Puducherry
  district: Puducherry
  assembly_constituency: Nellithope
  latitude: 11.9322
  longitude: 79.8145
  accessibility:
    wheelchair_ramp: 'yes'
    accessibility_rating: 4.6
    audio_booth: true
    braille_materials: true
  election_details: {}
  contact: {}
  community_data: {}
  metadata: {}
- station_id: PY_PDY_002
  name: Aditya Vidyashram
  address: First Main Road, Sathya Nagar (East), Puducherry-605013
  state: Puducherry
  district: Puducherry
  assembly_constituency: Nellithope
  latitude: 11.9355
  longitude: 79.8188
  accessibility:
    wheelchair_ramp: 'yes'
    accessibility_rating: 4.1
    audio_booth: false
    braille_materials: true
  election_details: {}
  contact: {}
  community_data: {}
  metadata: {}
- station_id: PY_PDY_003
  name: Planning and Research Dept.
  address: Kamaraj Salai, Saram, Puducherry-605013
  state: Puducherry
  district: Puducherry
  assembly_constituency: Nellithope
  latitude: 11.9311
  longitude: 79.8095
  accessibility:
    wheelchair_ramp: 'no'
    accessibility_rating: 2.5
    audio_booth: false
    braille_materials: false
  election_details: {}
  contact: {}
  community_data: {}
  metadata: {}
- station_id: PY_PUD_PS00001
  state: Puducherry
  state_code: PY
  district: Puducherry
  district_code: PUD
  name: G.G.H.S, Pondicherry
  address: Heritage Town, Puducherry
  assembly_constituency: Unknown
  parliamentary_constituency: Unknown
  latitude: 11.9338
  longitude: 79.8297
  metadata:
    data_source: state_CEO
    confidence_score: 0.69
    needs_update: true
    last_audit: '2026-03-30'
  accessibility:
    wheelchair_ramp: 'no'
    accessibility_rating: 2
    notes: Heritage building - limited access
- station_id: KL_THI_PS00001
  state: Kerala
  state_code: KL
  district: Thiruvananthapuram
  district_code: THI
  name: Vanchiyoor Govt LP School (Main Building)
  address: Vanchiyoor, Thiruvananthapuram, Kerala
  assembly_constituency: Unknown
  parliamentary_constituency: Unknown
  latitude: 8.4905
  longitude: 76.9412
  metadata:
    data_source: state_CEO
    confidence_score: 0.72
    needs_update: true
    last_audit: '2026-03-30'
  accessibility:
    wheelchair_ramp: 'yes'
    accessibility_rating: 5
    notes: Premium accessibility facilities
